insee_code,name,postal_code,lat,lon,population
64001,Aast,64460,43.292200,-0.082900,202
55001,Abainville,55130,48.531000,5.523600,280
59001,Abancourt,59268,50.236700,3.208700,441
60001,Abancourt,60220,49.695600,1.770200,569
54001,Abaucourt,54610,48.890300,6.265500,330
55002,Abaucourt-Hautecourt,55400,49.199800,5.546900,101
25001,Abbans-Dessous,25320,47.134500,5.871000,250
25002,Abbans-Dessus,25440,47.126700,5.887700,282
44001,Abbaretz,44170,47.554600,-1.492900,2073
60002,Abbecourt,60430,49.359700,2.156100,879
25003,Abbenans,25340,47.495700,6.449400,321
80001,Abbeville,80100,50.110100,1.831900,22395
60003,Abbeville-Saint-Lucien,60480,49.520100,2.167000,499
02001,Abbécourt,02300,49.599700,3.182400,518
91001,Abbéville-la-Rivière,91150,48.336900,2.197000,322
54002,Abbéville-lès-Conflans,54800,49.200500,5.846400,240
25004,Abbévillers,25310,47.426300,6.919500,1071
34001,Abeilhan,34290,43.460000,3.302600,1850
70001,Abelcourt,70300,47.794700,6.278900,333
39001,Abergement-la-Ronce,39500,47.065300,5.377800,827
39002,Abergement-le-Grand,39600,46.914100,5.678500,61
39003,Abergement-le-Petit,39800,46.906400,5.697300,46
39004,Abergement-lès-Thésy,39110,46.910900,5.944700,46
64003,Abidos,64150,43.393700,-0.627100,222
37001,Abilly,37160,46.939000,0.740600,1116
64004,Abitain,64390,43.417500,-0.998400,120
24001,Abjat-sur-Bandiat,24300,45.582500,0.765500,639
62001,Ablain-Saint-Nazaire,62153,50.398900,2.698300,1994
80002,Ablaincourt-Pressoir,80320,49.841200,2.826600,263
62002,Ablainzevelle,62116,50.153200,2.739500,208
51001,Ablancourt,51240,48.810300,4.531000,168
95002,Ableiges,95450,49.087300,1.973000,1108
78003,Ablis,78660,48.529200,1.856500,3913
14001,Ablon,14600,49.400700,0.280600,1166
94001,Ablon-sur-Seine,94480,48.723600,2.422900,5988
54003,Aboncourt,54115,48.360500,5.987500,91
57001,Aboncourt,57920,49.254400,6.355800,320
70002,Aboncourt-Gesincourt,70500,47.767700,5.974300,216
57002,Aboncourt-sur-Seille,57590,48.818600,6.357600,67
74001,Abondance,74360,46.252600,6.733400,1583
28001,Abondant,28410,48.798300,1.423600,2434
64005,Abos,64360,43.354800,-0.549300,526
42001,Aboën,42380,45.409700,4.127000,481
57003,Abreschviller,57560,48.603200,7.145100,1428
03001,Abrest,03200,46.096200,3.451400,2915
05001,Abriès-Ristolas,05460,44.771700,6.971700,374
59002,Abscon,59215,50.329300,3.299300,4108
16001,Abzac,16500,46.099900,0.717400,518
33001,Abzac,33230,45.012300,-0.128100,2048
64002,Abère,64160,43.388600,-0.174000,156
25005,Accolans,25250,47.490800,6.535300,87
07001,Accons,07160,44.891600,4.394400,361
64006,Accous,64490,42.921600,-0.599300,471
57004,Achain,57340,48.917100,6.589400,76
57006,Achen,57412,49.048300,7.183300,963
67001,Achenheim,67204,48.581800,7.629100,2637
02002,Achery,02800,49.693500,3.397400,584
80003,Acheux-en-Amiénois,80560,50.071600,2.531900,590
80004,Acheux-en-Vimeu,80210,50.066800,1.668800,501
62003,Acheville,62320,50.384700,2.881500,576
70003,Achey,70180,47.574000,5.607500,71
62004,Achicourt,62217,50.272300,2.757200,7873
62005,Achiet-le-Grand,62121,50.130600,2.778500,974
62006,Achiet-le-Petit,62121,50.128500,2.756800,320
58001,Achun,58110,47.131700,3.660500,160
60004,Achy,60690,49.562400,1.970100,408
18001,Achères,18250,47.282800,2.460100,326
78005,Achères,78260,48.981700,2.109500,22241
77001,Achères-la-Forêt,77760,48.347600,2.565300,1191
35001,Acigné,35690,48.146100,-1.518900,6874
27001,Aclou,27800,49.167500,0.693900,337
27002,Acon,27570,48.768100,1.105000,478
62007,Acq,62144,50.350200,2.654000,783
27003,Acquigny,27400,49.161600,1.174500,1733
62008,Acquin-Westbécourt,62380,50.733300,2.076300,802
02003,Acy,02200,49.347600,3.418800,1004
08001,Acy-Romance,08300,49.491500,4.326900,479
60005,Acy-en-Multien,60620,49.110100,2.953700,821
57007,Adaincourt,57580,49.006400,6.444500,135
78006,Adainville,78113,48.720600,1.662900,673
25006,Adam-lès-Passavant,25360,47.304900,6.369200,88
25007,Adam-lès-Vercel,25530,47.164600,6.390400,105
67002,Adamswiller,67320,48.906800,7.201700,407
65001,Adast,65260,42.976200,-0.076900,299
57008,Adelange,57380,49.007700,6.607700,222
70004,Adelans-et-le-Val-de-Bithaine,70200,47.707700,6.399200,311
65003,Adervielle-Pouchergues,65240,42.797300,0.389400,142
79002,Adilly,79200,46.701100,-0.318800,310
62009,Adinfer,62116,50.191300,2.707300,287
34002,Adissan,34230,43.535800,3.425400,1371
45001,Adon,45230,47.758700,2.792500,188
86001,Adriers,86430,46.262100,0.788400,698
65002,Adé,65100,43.144300,-0.027500,856
2A001,Afa,20167,41.981000,8.797500,3350
19001,Affieux,19260,45.511100,1.761900,385
54004,Affléville,54800,49.262700,5.757900,172
69001,Affoux,69170,45.844800,4.411600,398
54005,Affracourt,54740,48.460200,6.165500,113
62010,Affringues,62380,50.690100,2.069200,254
31001,Agassac,31230,43.374000,0.886600,115
34003,Agde,34300,43.308400,3.483800,29939
34004,Agel,34210,43.349800,2.854400,240
47001,Agen,47000,44.201000,0.630200,32801
12001,Agen-d'Aveyron,12630,44.350900,2.691500,1116
21001,Agencourt,21700,47.125600,4.988300,416
80005,Agenville,80370,50.171400,2.107800,83
80006,Agenvillers,80150,50.179200,1.921000,215
52001,Ageville,52340,48.110200,5.337600,290
21002,Agey,21410,47.288400,4.760600,265
2B002,Aghione,20270,42.093400,9.406400,258
54006,Agincourt,54770,48.729400,6.235100,424
47002,Agmé,47350,44.489400,0.341200,108
47003,Agnac,47800,44.640600,0.378800,482
43001,Agnat,43100,45.343500,3.454200,170
50002,Agneaux,50180,49.115300,-1.127200,4286
60007,Agnetz,60600,49.394400,2.378400,3058
62011,Agnez-lès-Duisans,62161,50.307000,2.646100,621
02004,Agnicourt-et-Séchelles,02340,49.717200,3.963700,189
38003,Agnin,38150,45.334700,4.859800,1245
62012,Agnières,62690,50.350700,2.609800,255
64007,Agnos,64400,43.155600,-0.635900,1044
62013,Agny,62217,50.251900,2.760000,1871
50003,Agon-Coutainville,50230,49.029800,-1.580700,3020
24002,Agonac,24460,45.278500,0.741500,1765
03002,Agonges,03210,46.623800,3.149000,300
34005,Agonès,34190,43.899000,3.724100,319
65004,Agos-Vidalos,65400,43.038300,-0.073200,391
16003,Agris,16110,45.775300,0.330500,891
17002,Agudelle,17500,45.383600,-0.469400,131
12002,Aguessac,12520,44.158400,3.066900,929
02005,Aguilcourt,02190,49.395300,3.966300,417
81001,Aguts,81470,43.533300,1.927100,238
14003,Agy,14400,49.237200,-0.779300,320
64008,Ahaxe-Alciette-Bascassan,64220,43.141000,-1.157100,261
64009,Ahetze,64210,43.405900,-1.565800,2104
53001,Ahuillé,53940,48.022100,-0.880300,1852
23001,Ahun,23150,46.091700,2.024100,1394
21003,Ahuy,21121,47.369600,5.017900,1718
88002,Ahéville,88500,48.283600,6.200700,67
59003,Aibes,59149,50.232800,4.091500,350
25008,Aibre,25750,47.553200,6.699500,434
79003,Aiffres,79230,46.283100,-0.414700,5419
30001,Aigaliers,30700,44.070300,4.309200,540
08003,Aiglemont,08090,49.790900,4.767900,1692
39006,Aiglepierre,39110,46.955000,5.809600,412
27004,Aigleville,27120,49.005300,1.424000,414
04001,Aiglun,04510,44.063200,6.141300,1399
06001,Aiglun,06910,43.855200,6.934800,104
32001,Aignan,32290,43.699000,0.091000,720
21004,Aignay-le-Duc,21510,47.673600,4.748200,257
34006,Aigne,34210,43.324100,2.792200,301
31002,Aignes,31550,43.333400,1.586600,242
80008,Aigneville,80210,50.035600,1.610900,904
51003,Aigny,51150,49.043400,4.224300,289
72001,Aigné,72650,48.065900,0.105600,1695
79185,Aigondigné,79370,46.284400,-0.272300,4710
16005,Aigre,16140,45.899600,0.025200,1594
31003,Aigrefeuille,31280,43.568400,1.584500,1369
17003,Aigrefeuille-d'Aunis,17290,46.119900,-0.949100,4677
44002,Aigrefeuille-sur-Maine,44140,47.073500,-1.412100,4156
30002,Aigremont,30350,43.959400,4.115500,782
52002,Aigremont,52400,48.013600,5.729200,23
78007,Aigremont,78240,48.902700,2.012700,1075
89002,Aigremont,89800,47.717100,3.886600,69
73001,Aiguebelette-le-Lac,73610,45.544600,5.811100,255
81002,Aiguefonde,81200,43.489300,2.326400,2505
63001,Aigueperse,63260,46.014500,3.202400,2665
69002,Aigueperse,69790,46.282200,4.426800,235
09001,Aigues-Juntes,09240,43.050200,1.471000,59
30003,Aigues-Mortes,30220,43.548200,4.160600,8699
09002,Aigues-Vives,09600,42.999600,1.878100,625
11001,Aigues-Vives,11800,43.234000,2.535900,532
30004,Aigues-Vives,30670,43.734300,4.193000,3331
34007,Aigues-Vives,34210,43.350300,2.823100,476
43002,Aiguilhe,43000,45.052800,3.885100,1498
05003,Aiguilles,05470,44.782600,6.876800,369
47004,Aiguillon,47190,44.298900,0.362000,3968
83002,Aiguines,83630,43.736500,6.319700,274
36001,Aigurande,36140,46.457200,1.848900,1321
30005,Aiguèze,30760,44.312400,4.518400,212
07002,Ailhon,07200,44.599200,4.336400,553
45002,Aillant-sur-Milleron,45230,47.795800,2.934600,373
33002,Aillas,33124,44.484800,-0.067300,786
42002,Ailleux,42130,45.798100,3.936300,175
70005,Aillevans,70110,47.590100,6.417800,131
10002,Ailleville,10200,48.256200,4.691100,223
70006,Aillevillers-et-Lyaumont,70320,47.934300,6.329600,1426
52003,Aillianville,52700,48.334300,5.479800,148
72002,Aillières-Beauvoir,72600,48.400500,0.321000,200
73004,Aillon-le-Jeune,73340,45.603200,6.086300,430
73005,Aillon-le-Vieux,73340,45.652900,6.079700,221
70007,Ailloncourt,70300,47.758000,6.394900,305
27005,Ailly,27600,49.156100,1.244600,1234
80009,Ailly-le-Haut-Clocher,80690,50.078400,1.996500,1024
80010,Ailly-sur-Noye,80250,49.749300,2.352400,2648
80011,Ailly-sur-Somme,80470,49.915900,2.185100,3003
30006,Aimargues,30470,43.666700,4.201000,5705
73006,Aime-la-Plagne,73210,45.566100,6.611900,4385
03003,Ainay-le-Château,03360,46.718200,2.715700,989
18002,Ainay-le-Vieil,18200,46.657300,2.541300,189
64011,Aincille,64220,43.135200,-1.196500,117
95008,Aincourt,95510,49.073300,1.773000,854
55004,Aincreville,55110,49.368700,5.114700,80
54007,Aingeray,54460,48.737100,6.019200,532
88003,Aingeville,88140,48.206000,5.765900,60
52004,Aingoulaincourt,52230,48.456500,5.278000,11
64012,Ainharp,64130,43.255100,-0.939900,131
64013,Ainhice-Mongelos,64220,43.213600,-1.157900,168
64014,Ainhoa,64250,43.296800,-1.482800,672
70008,Ainvelle,70800,47.848000,6.243800,149
88004,Ainvelle,88320,47.986600,5.826800,140
80013,Airaines,80270,49.970700,1.951100,2204
08004,Aire,08190,49.469500,4.162400,251
40001,Aire-sur-l'Adour,40800,43.693200,-0.256100,6211
62014,Aire-sur-la-Lys,62120,50.645700,2.396200,9598
50004,Airel,50680,49.215400,-1.078700,515
60008,Airion,60600,49.418100,2.421800,409
62015,Airon-Notre-Dame,62180,50.441600,1.671100,261
62016,Airon-Saint-Vaast,62180,50.426200,1.668700,185
11002,Airoux,11320,43.366700,1.873900,201
79005,Airvault,79600,46.832300,-0.153200,3306
21005,Aiserey,21110,47.171500,5.166500,1500
70009,Aisey-et-Richecourt,70500,47.885700,5.956600,100
21006,Aisey-sur-Seine,21400,47.742800,4.577400,160
02006,Aisonville-et-Bernoville,02110,49.931300,3.512100,259
21007,Aisy-sous-Thil,21390,47.392000,4.279500,200
89004,Aisy-sur-Armançon,89390,47.655100,4.213400,232
2B003,Aiti,20244,42.402600,9.228400,27
73007,Aiton,73220,45.575800,6.254300,1874
19002,Aix,19200,45.616000,2.393000,352
62019,Aix-Noulette,62160,50.423100,2.712500,3902
10003,Aix-Villemaur-Pâlis,10160,48.226600,3.721800,3236
62017,Aix-en-Ergny,62650,50.583600,2.001100,194
62018,Aix-en-Issart,62170,50.482200,1.863500,264
13001,Aix-en-Provence,13080,43.536000,5.387900,149695
59004,Aix-en-Pévèle,59310,50.497700,3.306000,1338
63002,Aix-la-Fayette,63980,45.508200,3.529500,97
73008,Aix-les-Bains,73100,45.694300,5.903500,32406
87001,Aixe-sur-Vienne,87700,45.799000,1.124500,5890
07003,Aizac,07530,44.719000,4.333500,169
52005,Aizanville,52120,48.111300,4.895400,23
36002,Aize,36150,47.104800,1.706100,114
80014,Aizecourt-le-Bas,80240,49.986700,3.028300,69
80015,Aizecourt-le-Haut,80200,49.968200,2.983600,66
02007,Aizelles,02820,49.486500,3.821100,118
85003,Aizenay,85190,46.736600,-1.627100,10365
27006,Aizier,27500,49.432000,0.627900,158
02008,Aizy-Jouy,02370,49.437200,3.512800,306
11003,Ajac,11300,43.044800,2.137300,196
2A004,Ajaccio,20000,41.922800,8.705800,76320
23002,Ajain,23380,46.210400,2.000200,1019
24004,Ajat,24210,45.160300,1.028900,307
57009,Ajoncourt,57590,48.844600,6.301200,102
07004,Ajoux,07000,44.754100,4.487200,81
11004,Alaigne,11240,43.094900,2.088700,327
02009,Alaincourt,02240,49.768100,3.369200,517
70010,Alaincourt,70210,47.945200,6.103200,97
57010,Alaincourt-la-Côte,57590,48.897300,6.343300,176
11005,Alairac,11290,43.184800,2.238700,1395
31005,Alan,31420,43.217500,0.930100,292
2B005,Alando,20212,42.308300,9.289900,30
2A006,Alata,20167,41.970200,8.729400,3681
07005,Alba-la-Romaine,07400,44.559300,4.595800,1533
81003,Alban,81250,43.885500,2.453200,964
48002,Albaret-Sainte-Marie,48200,44.880400,3.253600,559
48001,Albaret-le-Comtal,48310,44.864100,3.144600,131
11006,Albas,11360,43.004600,2.732800,87
46001,Albas,46140,44.463600,1.242500,529
82001,Albefeuille-Lagarde,82290,44.049100,1.271800,582
15025,Albepierre-Bredons,15300,45.077700,2.826800,242
80016,Albert,80300,50.003500,2.651500,9521
2B007,Albertacce,20224,42.314500,8.927700,196
73011,Albertville,73200,45.664700,6.410000,19978
57011,Albestroff,57670,48.930000,6.872300,606
81004,Albi,81000,43.929000,2.132300,51290
31006,Albiac,31460,43.554700,1.786400,231
46002,Albiac,46500,44.770000,1.813500,95
82002,Albias,82350,44.084500,1.450800,3240
73013,Albiez-Montrond,73300,45.189500,6.342800,350
73012,Albiez-le-Jeune,73300,45.239900,6.358600,139
19003,Albignac,19190,45.147100,1.679500,236
69003,Albigny-sur-Saône,69250,45.866600,4.828400,3057
81005,Albine,81240,43.447800,2.529900,512
2A008,Albitreccia,20128,41.855200,8.874400,1833
11007,Albières,11330,42.945200,2.447000,117
09004,Albiès,09310,42.753900,1.696500,123
26002,Albon,26140,45.239400,4.865400,1942
07006,Albon-d'Ardèche,07190,44.816800,4.418300,159
07007,Alboussière,07440,44.939500,4.744900,1048
19004,Albussac,19380,45.138800,1.813200,725
74002,Alby-sur-Chéran,74540,45.814500,6.019700,2664
67003,Albé,67220,48.363500,7.340900,473
64016,Aldudes,64430,43.092400,-1.433100,332
62020,Alembon,62850,50.780500,1.871900,624
61001,Alençon,61000,48.431000,0.092300,25490
11008,Alet-les-Bains,11580,42.991400,2.261800,379
62021,Alette,62650,50.525800,1.850600,365
09005,Aleu,09320,42.892700,1.268300,137
74003,Alex,74290,45.875700,6.233400,1139
53002,Alexain,53240,48.232700,-0.739900,610
26003,Aleyrac,26770,44.499100,4.945900,50
94002,Alfortville,94140,48.796300,2.421400,45531
2B010,Algajola,20220,42.605100,8.858700,363
81006,Algans,81470,43.603300,1.891500,223
68001,Algolsheim,68600,48.004300,7.551300,1112
57012,Algrange,57440,49.365300,6.049300,5802
34009,Alignan-du-Vent,34290,43.467800,3.338900,1796
08005,Alincourt,08310,49.400900,4.345000,160
62022,Alincthun,62142,50.725500,1.811900,291
21008,Alise-Sainte-Reine,21150,47.536600,4.487800,564
07008,Alissas,07210,44.708900,4.613900,1519
69004,Alix,69380,45.916200,4.653400,777
26004,Alixan,26300,44.984300,5.016700,2729
27008,Alizay,27460,49.324000,1.177700,1567
39007,Alièze,39270,46.588000,5.585100,149
54008,Allain,54170,48.548900,5.920200,490
80017,Allaines,80200,49.964000,2.936400,419
28003,Allainville,28500,48.721100,1.290700,159
78009,Allainville,78660,48.467300,1.903800,281
56001,Allaire,56350,47.631200,-2.181600,3955
54009,Allamont,54800,49.126600,5.781500,156
54010,Allamps,54112,48.550100,5.811100,505
26005,Allan,26780,44.496800,4.803600,1980
15001,Allanche,15160,45.228500,2.961000,773
08006,Alland'Huy-et-Sausseuil,08130,49.511700,4.546700,272
88005,Allarmont,88110,48.469700,7.017600,214
17005,Allas-Bocage,17150,45.385200,-0.501900,194
17006,Allas-Champagne,17500,45.472900,-0.338600,283
24006,Allas-les-Mines,24220,44.827600,1.074800,203
19005,Allassac,19240,45.257300,1.460900,4081
13002,Allauch,13190,43.352200,5.510300,21443
13003,Alleins,13980,43.709800,5.155800,2852
04004,Allemagne-en-Provence,04500,43.792100,6.025700,544
51004,Allemanche-Launay-et-Soyer,51260,48.608000,3.793200,121
24007,Allemans,24600,45.288600,0.295100,544
47005,Allemans-du-Dropt,47800,44.623700,0.285900,490
02010,Allemant,02320,49.463900,3.459100,163
51005,Allemant,51120,48.763300,3.822100,166
38005,Allemond,38114,45.177700,6.018400,971
80018,Allenay,80130,50.085900,1.491900,253
48003,Allenc,48190,44.550000,3.677800,265
25011,Allenjoie,25490,47.535100,6.895100,719
59005,Allennes-les-Marais,59251,50.540600,2.946000,3545
21009,Allerey,21230,47.190000,4.425600,174
71003,Allerey-sur-Saône,71350,46.914500,4.970900,804
80019,Allery,80270,49.958300,1.888700,843
24005,Alles-sur-Dordogne,24480,44.861800,0.872400,380
15002,Alleuze,15100,44.954800,3.103700,224
38006,Allevard,38580,45.377600,6.118900,3971
26006,Allex,26400,44.771800,4.915700,2698
43004,Alleyrac,43150,44.895300,3.989800,117
43005,Alleyras,43580,44.911400,3.682900,152
19006,Alleyrat,19200,45.565100,2.219700,98
23003,Alleyrat,23200,45.986200,2.152900,144
47006,Allez-et-Cazeneuve,47110,44.377400,0.629100,609
51006,Alliancelles,51250,48.801600,4.874400,148
09006,Alliat,09400,42.818100,1.577800,57
10004,Allibaudières,10700,48.584900,4.124600,208
52006,Allichamps,52130,48.564000,4.889200,348
65005,Allier,65360,43.180200,0.125600,446
58002,Alligny-Cosne,58200,47.446300,3.072600,926
58003,Alligny-en-Morvan,58230,47.210200,4.167400,594
22001,Allineuc,22460,48.314700,-2.869300,589
74005,Allinges,74200,46.336200,6.461300,5019
09007,Allières,09240,43.039100,1.363100,76
18004,Allogny,18110,47.237800,2.311100,1142
79136,Alloinay,79110,46.148600,-0.035000,914
25013,Allondans,25550,47.523800,6.750800,234
73014,Allondaz,73200,45.710300,6.371300,298
54011,Allondrelle-la-Malmaison,54260,49.511100,5.570500,635
60009,Allonne,60000,49.395200,2.115700,1767
79007,Allonne,79130,46.574900,-0.378300,608
28004,Allonnes,28150,48.331000,1.650200,321
49002,Allonnes,49650,47.306900,0.008100,2911
72003,Allonnes,72700,47.958800,0.144700,10739
04005,Allons,04170,43.976900,6.592900,126
47007,Allons,47420,44.200700,-0.072200,163
80020,Allonville,80260,49.940500,2.361000,778
74006,Allonzier-la-Caille,74350,45.999700,6.100900,2253
04006,Allos,04260,44.269000,6.630400,812
62023,Allouagne,62157,50.535000,2.504700,2823
16007,Alloue,16490,46.024800,0.529700,491
18005,Allouis,18500,47.179200,2.237900,1036
76001,Allouville-Bellefosse,76190,49.595600,0.663600,1153
58004,Alluy,58110,47.036000,3.641700,365
28005,Alluyes,28800,48.225100,1.366600,756
15003,Ally,15700,45.161700,2.334100,594
43006,Ally,43380,45.150000,3.318400,123
43003,Allègre,43270,45.186100,3.687700,922
30008,Allègre-les-Fumades,30500,44.201600,4.253600,1002
74004,Allèves,74540,45.753900,6.082000,397
71004,Allériot,71380,46.802100,4.953200,1165
81008,Almayrac,81190,44.101900,2.154600,293
61002,Almenêches,61570,48.697500,0.124200,638
12004,Almont-les-Junies,12300,44.600700,2.317200,437
09008,Alos,09200,42.901300,1.131800,116
81007,Alos,81140,44.020200,1.875900,93
64017,Alos-Sibas-Abense,64470,43.114900,-0.877200,291
21010,Aloxe-Corton,21420,47.068000,4.862800,125
62024,Alquines,62850,50.734300,1.996400,973
12006,Alrance,12430,44.139600,2.675600,335
57013,Alsting,57515,49.179600,7.000200,2480
2A011,Altagène,20112,41.709700,9.073700,52
67005,Alteckendorf,67270,48.793600,7.595100,857
68002,Altenach,68210,47.600500,7.107700,372
67006,Altenheim,67490,48.722500,7.463700,229
84001,Althen-des-Paluds,84210,44.005500,4.958500,2960
2B012,Altiani,20251,42.219800,9.276600,53
48004,Altier,48800,44.457000,3.855900,213
19007,Altillac,19120,44.977400,1.868300,824
68004,Altkirch,68130,47.620600,7.244500,5687
67008,Altorf,67120,48.524300,7.540400,1447
57014,Altrippe,57660,49.027400,6.816700,365
57015,Altviller,57730,49.070600,6.730900,524
67009,Altwiller,67260,48.917300,6.976600,373
71005,Aluze,71510,46.852200,4.686600,255
46003,Alvignac,46500,44.838300,1.692700,699
76002,Alvimare,76640,49.606600,0.630600,584
09009,Alzen,09240,42.980500,1.453900,262
2B013,Alzi,20212,42.313300,9.317500,27
57016,Alzing,57320,49.274500,6.553100,405
30009,Alzon,30770,43.974000,3.446600,194
11009,Alzonne,11170,43.264600,2.166500,1586
64015,Alçay-Alçabéhéty-Sunharette,64470,43.083400,-0.965400,206
30007,Alès,30100,44.125000,4.090500,46125
66002,Alénya,66200,42.641300,2.982400,3782
2B009,Aléria,20270,42.099300,9.497200,2267
70011,Amage,70280,47.844300,6.501900,304
08008,Amagne,08300,49.513300,4.504000,814
25014,Amagney,25220,47.304100,6.147100,934
79008,Amailloux,79350,46.746700,-0.319100,822
10005,Amance,10140,48.293900,4.482200,245
54012,Amance,54770,48.757300,6.308000,365
70012,Amance,70160,47.790200,6.050200,669
25015,Amancey,25330,47.034000,6.071900,744
74007,Amancy,74800,46.072200,6.326900,2792
39008,Amange,39700,47.169100,5.565900,428
35002,Amanlis,35150,48.001700,-1.495100,1768
55005,Amanty,55130,48.516000,5.601600,36
57017,Amanvillers,57865,49.161500,6.042900,2188
71006,Amanzé,71800,46.326100,4.236400,196
81009,Amarens,81170,44.042300,1.924400,61
25016,Amathay-Vésigneux,25330,47.023700,6.197100,175
14006,Amayé-sur-Orne,14210,49.091400,-0.435800,1079
14007,Amayé-sur-Seulles,14310,49.082400,-0.716200,215
58005,Amazy,58190,47.384000,3.569700,208
88006,Ambacourt,88500,48.351500,6.139400,300
33003,Ambarès-et-Lagrave,33440,44.951700,-0.500000,17644
31007,Ambax,31230,43.369200,0.938700,57
87002,Ambazac,87240,45.960900,1.395600,5556
38008,Ambel,38970,44.799700,5.934800,35
27009,Ambenay,27250,48.840000,0.738300,544
16009,Ambernac,16490,45.978000,0.551600,381
86002,Amberre,86110,46.758800,0.156400,565
63003,Ambert,63600,45.551600,3.755600,6517
12007,Ambeyrac,12260,44.491900,1.935600,184
81010,Ambialet,81430,43.926700,2.383700,471
2A014,Ambiegna,20151,42.089900,8.768100,79
42003,Ambierle,42820,46.106800,3.895300,1865
37002,Ambillou,37340,47.454000,0.451300,1746
74008,Ambilly,74100,46.195700,6.223900,6355
70013,Ambiévillers,70210,47.991100,6.137900,80
60010,Amblainville,60110,49.206200,2.124900,1805
70014,Amblans-et-Velotte,70200,47.681700,6.419800,386
02011,Ambleny,02290,49.374100,3.168100,1205
62025,Ambleteuse,62164,50.812900,1.619800,2033
95011,Ambleville,95420,49.151000,1.695900,388
41001,Ambloy,41310,47.709400,0.970400,187
08010,Ambly-Fleury,08130,49.490100,4.490400,132
55007,Ambly-sur-Meuse,55300,49.022000,5.452100,245
01006,Ambléon,01300,45.748300,5.592800,115
37003,Amboise,37400,47.396700,0.998900,12937
56002,Ambon,56190,47.559900,-2.536500,2101
26007,Ambonil,26800,44.791600,4.909700,106
51007,Ambonnay,51150,49.092600,4.177800,941
52007,Ambonville,52110,48.315300,5.013900,82
36003,Ambrault,36120,46.786000,1.949600,884
81011,Ambres,81500,43.728700,1.831300,1033
62026,Ambricourt,62310,50.466800,2.172800,118
02012,Ambrief,02200,49.322600,3.405800,79
62027,Ambrines,62127,50.308200,2.466000,211
51008,Ambrières,51290,48.628500,4.827600,210
53003,Ambrières-les-Vallées,53300,48.424200,-0.626800,2619
01007,Ambronay,01500,46.009900,5.362700,2841
19008,Ambrugeat,19250,45.533600,2.087800,213
76004,Ambrumesnil,76550,49.859100,0.983000,520
47008,Ambrus,47160,44.231900,0.245500,110
01008,Ambutrix,01500,45.934700,5.335900,760
33004,Ambès,33810,45.012300,-0.548600,3313
16008,Ambérac,16140,45.858100,0.062600,315
01004,Ambérieu-en-Bugey,01500,45.957500,5.370600,15934
69005,Ambérieux,69480,45.926400,4.742700,651
01005,Ambérieux-en-Dombes,01330,45.999200,4.911900,1906
55008,Amel-sur-l'Étang,55230,49.256900,5.645000,153
57018,Amelécourt,57170,48.839200,6.488800,118
64018,Amendeuix-Oneix,64120,43.343900,-1.044500,472
54013,Amenoncourt,54450,48.630800,6.786500,87
95012,Amenucourt,95510,49.108400,1.646900,212
62028,Ames,62190,50.534500,2.414900,676
62029,Amettes,62260,50.528000,2.396100,469
71007,Ameugny,71460,46.522800,4.669000,169
88007,Ameuvelle,88410,47.951000,5.949800,46
14009,Amfreville,14860,49.250800,-0.240500,1394
27011,Amfreville-Saint-Amand,27370,49.218800,0.925300,1207
76005,Amfreville-la-Mi-Voie,76920,49.405300,1.127500,3265
27012,Amfreville-les-Champs,27380,49.313100,1.322300,449
76006,Amfreville-les-Champs,76560,49.698000,0.826900,188
27013,Amfreville-sous-les-Monts,27380,49.303100,1.262900,532
27014,Amfreville-sur-Iton,27400,49.154900,1.144600,887
80021,Amiens,80000,49.898700,2.284700,136449
02013,Amifontaine,02190,49.497700,3.921800,391
50006,Amigny,50620,49.156500,-1.185600,151
02014,Amigny-Rouy,02700,49.611100,3.305900,707
77002,Amillis,77120,48.732700,3.140000,830
28006,Amilly,28300,48.442400,1.407300,1855
45004,Amilly,45200,47.991100,2.781300,13582
06002,Amirat,06910,43.897300,6.810800,45
68005,Ammerschwihr,68410,48.116600,7.266900,1580
72004,Amné,72540,48.034900,-0.042600,569
57019,Amnéville,57360,49.246900,6.117900,10875
70015,Amoncourt,70170,47.735800,6.061600,270
25017,Amondans,25330,47.072200,6.034600,85
70016,Amont-et-Effreney,70310,47.867200,6.563000,168
64019,Amorots-Succos,64120,43.362600,-1.127300,219
40002,Amou,40330,43.589100,-0.746400,1550
21012,Ampilly-le-Sec,21400,47.813400,4.506500,322
21011,Ampilly-les-Bordes,21450,47.640400,4.627200,79
69006,Amplepuis,69550,45.966000,4.317000,4876
62030,Amplier,62760,50.135700,2.398500,297
77003,Amponville,77760,48.289700,2.529500,349
2B015,Ampriani,20272,42.253700,9.356600,23
69007,Ampuis,69420,45.503400,4.807900,2769
83003,Ampus,83111,43.621800,6.368300,919
79009,Amuré,79210,46.255900,-0.610900,429
60011,Amy,60310,49.640100,2.831000,419
27010,Amécourt,27140,49.376300,1.734500,172
66003,Amélie-les-Bains-Palalda,66110,42.450800,2.687000,3529
16011,Anais,16560,45.769700,0.204600,587
17007,Anais,17540,46.177400,-0.901200,314
31008,Anan,31230,43.354100,0.813900,267
64225,Ance Féas,64570,43.157500,-0.694200,624
76007,Anceaumeville,76710,49.569200,1.062100,708
05004,Ancelle,05260,44.619500,6.228800,1017
55009,Ancemont,55320,49.063200,5.381100,527
44003,Ancenis-Saint-Géréon,44150,47.382000,-1.168100,11600
55010,Ancerville,55170,48.639100,5.026600,2569
57020,Ancerville,57580,49.031800,6.398800,300
54014,Ancerviller,54450,48.532800,6.835200,245
21013,Ancey,21410,47.335200,4.822600,451
08011,Anchamps,08500,49.925500,4.661800,216
70017,Anchenoncourt-et-Chazel,70210,47.863500,6.116000,224
37004,Anché,37500,47.129800,0.309100,426
86003,Anché,86700,46.349700,0.268300,324
02015,Ancienville,02600,49.219600,3.206500,78
70018,Ancier,70100,47.444400,5.636700,523
72005,Ancinnes,72610,48.361800,0.177200,895
65006,Ancizan,65440,42.903300,0.292400,294
76008,Ancourt,76370,49.911000,1.183500,618
76009,Ancourteville-sur-Héricourt,76560,49.691400,0.661300,354
76010,Ancretiéville-Saint-Victor,76760,49.655500,0.968100,382
76011,Ancretteville-sur-Mer,76540,49.789100,0.503700,143
50008,Anctoville-sur-Boscq,50400,48.845600,-1.528000,435
69008,Ancy,69490,45.836200,4.509800,671
57021,Ancy-Dornot,57130,49.064500,6.047400,1490
89005,Ancy-le-Franc,89160,47.771800,4.163500,834
89006,Ancy-le-Libre,89160,47.803400,4.149200,137
26008,Ancône,26200,44.580300,4.719700,1338
80022,Andainville,80140,49.890900,1.785700,233
07009,Andance,07340,45.231600,4.797200,1192
26009,Andancette,26140,45.247500,4.812700,1330
80023,Andechy,80700,49.715500,2.708500,282
22002,Andel,22400,48.493000,-2.554900,1180
02016,Andelain,02800,49.642800,3.368600,212
03004,Andelaroche,03120,46.248000,3.740000,214
70019,Andelarre,70000,47.588700,6.092900,153
70020,Andelarrot,70000,47.580800,6.094200,246
15004,Andelat,15100,45.065300,3.055000,468
90001,Andelnans,90400,47.601700,6.862800,1093
52008,Andelot-Blancheville,52700,48.236500,5.281000,799
39010,Andelot-Morval,39320,46.423500,5.427800,90
39009,Andelot-en-Montagne,39110,46.860400,5.927700,574
78013,Andelu,78770,48.887000,1.809400,550
55011,Andernay,55800,48.782700,4.952400,236
33005,Andernos-les-Bains,33510,44.752900,-1.082000,12710
54015,Anderny,54560,49.337100,5.881800,254
01009,Andert-et-Condon,01300,45.784100,5.660700,348
60012,Andeville,60570,49.258400,2.166900,3434
81012,Andillac,81140,44.005500,1.894500,127
17008,Andilly,17230,46.261500,-1.015700,2350
54016,Andilly,54200,48.766500,5.888300,275
74009,Andilly,74350,46.069800,6.072600,1013
95014,Andilly,95580,49.009800,2.302000,2742
52009,Andilly-en-Bassigny,52360,47.927700,5.522800,108
47009,Andiran,47170,44.104200,0.286300,260
67010,Andlau,67140,48.393500,7.387100,1757
64021,Andoins,64420,43.300800,-0.225800,727
68007,Andolsheim,68280,48.064500,7.438900,2199
06003,Andon,06750,43.775500,6.821100,665
45005,Andonville,45480,48.274000,2.023300,247
70021,Andornay,70200,47.659400,6.599100,175
53005,Andouillé,53240,48.176900,-0.791100,2321
35003,Andouillé-Neuville,35250,48.299300,-1.595100,1017
81013,Andouque,81350,44.000900,2.304300,383
64022,Andrein,64390,43.401800,-0.889800,136
62031,Andres,62340,50.865000,1.919100,1523
65007,Andrest,65390,43.315600,0.065500,1340
77004,Andrezel,77390,48.613900,2.805100,336
89007,Andryes,89480,47.534600,3.453900,450
78015,Andrésy,78570,48.977800,2.049600,13834
42005,Andrézieux-Bouthéon,42160,45.535300,4.277300,10425
30010,Anduze,30140,44.054000,3.976600,3391
27015,Andé,27430,49.227100,1.248000,1343
28007,Anet,28260,48.851000,1.443200,2721
64023,Angaïs,64510,43.239900,-0.246500,885
16012,Angeac-Champagne,16130,45.613100,-0.287700,495
16013,Angeac-Charente,16120,45.624700,-0.083300,287
08013,Angecourt,08450,49.633200,4.973900,382
16014,Angeduc,16300,45.478700,-0.055200,145
89008,Angely,89440,47.560300,4.011200,152
90002,Angeot,90150,47.695800,7.003200,354
49007,Angers,49000,47.481900,-0.562900,159022
14012,Angerville,14430,49.244000,-0.029000,184
91016,Angerville,91670,48.311600,2.005700,4428
76012,Angerville-Bailleul,76110,49.668100,0.452700,196
76014,Angerville-l'Orcher,76280,49.584700,0.295100,1395
27017,Angerville-la-Campagne,27930,48.987600,1.157500,1433
76013,Angerville-la-Martel,76540,49.767200,0.503700,1079
91017,Angervilliers,91470,48.591600,2.059300,1772
82003,Angeville,82210,43.988600,1.034100,239
57022,Angevillers,57440,49.390200,6.047500,1404
60013,Angicourt,60940,49.314800,2.502400,1345
76015,Angiens,76740,49.833600,0.802100,513
70022,Angirey,70700,47.452400,5.777300,152
60014,Angivillers,60130,49.489300,2.500100,155
33006,Anglade,33390,45.212300,-0.641400,887
15005,Anglards-de-Saint-Flour,15100,44.988100,3.163500,412
15006,Anglards-de-Salers,15380,45.199000,2.485400,727
46004,Anglars,46120,44.750200,1.897800,218
46005,Anglars-Juillac,46140,44.484900,1.209900,330
46006,Anglars-Nozac,46300,44.782300,1.405000,400
12008,Anglars-Saint-Félix,12390,44.414300,2.235200,930
01010,Anglefort,01350,45.908600,5.794800,1174
88008,Anglemont,88700,48.377300,6.671300,144
04007,Angles,04170,43.944200,6.553100,72
85004,Angles,85750,46.387300,-1.404500,3115
86004,Angles-sur-l'Anglin,86260,46.702800,0.896100,370
76017,Anglesqueville-l'Esneval,76280,49.631800,0.234600,678
76016,Anglesqueville-la-Bras-Long,76740,49.779700,0.782700,134
64024,Anglet,64600,43.489300,-1.519300,43271
17009,Angliers,17540,46.204900,-0.949900,1447
86005,Angliers,86330,46.936500,0.099200,612
51009,Anglure,51260,48.589100,3.816600,777
71008,Anglure-sous-Dun,71170,46.235900,4.369400,143
51010,Angluzelles-et-Courcelles,51230,48.664600,3.912500,149
81014,Anglès,81260,43.536800,2.592100,515
24008,Angoisse,24270,45.432300,1.152800,598
54017,Angomont,54540,48.504300,6.979900,75
65010,Angos,65690,43.199000,0.166100,230
17010,Angoulins,17690,46.108300,-1.110000,4240
16015,Angoulême,16000,45.645800,0.145000,41908
40003,Angoumé,40990,43.706700,-1.139600,261
64025,Angous,64190,43.291200,-0.812400,96
66005,Angoustrine-Villeneuve-des-Escaldes,66760,42.546000,1.944300,542
62032,Angres,62143,50.411900,2.753800,4641
40004,Angresse,40150,43.659100,-1.362400,2277
49008,Angrie,49440,47.581900,-0.967700,913
02017,Anguilcourt-le-Sart,02800,49.697100,3.424000,274
60015,Angy,60250,49.334900,2.329600,1124
41002,Angé,41400,47.314200,1.242000,795
64026,Anhaux,64220,43.144200,-1.302100,389
59007,Anhiers,59194,50.403700,3.154600,888
34010,Aniane,34150,43.686000,3.591100,2979
59008,Aniche,59580,50.330100,3.258300,9963
14015,Anisy,14610,49.253100,-0.400000,819
02018,Anizy-le-Grand,02320,49.515900,3.442600,2472
70023,Anjeux,70800,47.881400,6.209900,148
38009,Anjou,38150,45.349300,4.882000,1031
36004,Anjouin,36210,47.202000,1.807700,313
90003,Anjoutey,90170,47.705500,6.922700,611
65012,Anla,65370,43.005000,0.593500,90
58006,Anlezy,58270,46.968800,3.492500,240
24009,Anlhiac,24160,45.324100,1.119400,264
58007,Annay,58450,47.529700,2.941500,343
62033,Annay,62880,50.460600,2.884900,4571
89009,Annay-la-Côte,89200,47.551500,3.869900,329
89010,Annay-sur-Serein,89310,47.732400,3.956300,205
14016,Annebault,14430,49.249200,0.054700,521
74010,Annecy,74000,45.902400,6.126400,132117
08014,Annelles,08310,49.434100,4.414100,127
74012,Annemasse,74100,46.189000,6.247600,37628
17011,Annepont,17350,45.844600,-0.606700,399
62034,Annequin,62149,50.502800,2.718000,2133
24010,Annesse-et-Beaulieu,24430,45.181300,0.592700,1511
77005,Annet-sur-Marne,77410,48.923200,2.706700,3408
59010,Anneux,59400,50.155600,3.123000,258
76020,Anneville-Ambourville,76480,49.451800,0.896000,1153
50013,Anneville-en-Saire,50760,49.636900,-1.283600,370
76019,Anneville-sur-Scie,76590,49.839400,1.093500,405
26010,Anneyron,26140,45.271800,4.889200,4169
17012,Annezay,17380,46.007500,-0.697900,168
62035,Annezin,62232,50.542200,2.616600,5825
39011,Annoire,39120,46.958500,5.279600,423
02019,Annois,02480,49.712200,3.176100,349
38010,Annoisin-Chatelans,38460,45.765700,5.289000,719
18006,Annoix,18340,46.971200,2.545000,250
07010,Annonay,07100,45.244900,4.641900,17274
52012,Annonville,52230,48.386500,5.270700,28
04008,Annot,04240,43.963100,6.663100,1009
76021,Annouville-Vilmesnil,76110,49.678900,0.433500,447
89012,Annoux,89440,47.626700,4.051800,85
89011,Annéot,89200,47.519800,3.880800,112
52011,Annéville-la-Prairie,52310,48.199500,5.087500,95
59011,Annœullin,59112,50.527500,2.924200,10847
59012,Anor,59186,49.996500,4.121600,3099
64027,Anos,64160,43.399200,-0.289800,174
71009,Anost,71550,47.078800,4.097700,695
88009,Anould,88650,48.179400,6.939000,3234
54018,Anoux,54150,49.273900,5.868300,270
64028,Anoye,64350,43.397700,-0.137500,140
76022,Anquetierville,76490,49.536900,0.635600,329
52013,Anrosey,52500,47.846800,5.657400,121
16016,Ansac-sur-Vienne,16500,45.993400,0.626000,815
60016,Ansacq,60250,49.351300,2.363100,273
32002,Ansan,32270,43.686000,0.784300,75
54019,Ansauville,54470,48.811000,5.826000,76
60017,Ansauvillers,60120,49.567000,2.386500,1134
69009,Anse,69480,45.945100,4.704900,8206
66006,Ansignan,66220,42.764600,2.523300,164
65013,Ansost,65140,43.432300,0.110100,58
84002,Ansouis,84240,43.733800,5.468200,1064
59013,Anstaing,59152,50.602600,3.187600,1631
47010,Antagnac,47700,44.356100,-0.002300,223
15007,Anterrieux,15110,44.827000,3.063700,122
25018,Anteuil,25340,47.376900,6.578100,602
17013,Antezant-la-Chapelle,17400,45.998700,-0.479700,367
54020,Anthelupt,54110,48.601200,6.416700,440
51012,Anthenay,51700,49.141400,3.736800,70
08015,Antheny,08260,49.842300,4.308400,100
21014,Antheuil,21360,47.176300,4.746300,63
60019,Antheuil-Portes,60162,49.500200,2.733300,408
58008,Anthien,58800,47.308700,3.726500,173
38011,Anthon,38280,45.781200,5.158300,1154
74013,Anthy-sur-Léman,74200,46.353700,6.427500,2495
47011,Anthé,47370,44.370200,0.958200,194
06004,Antibes,06160,43.582300,7.104800,77637
65014,Antichan,65370,42.991800,0.583100,41
31009,Antichan-de-Frontignes,31510,42.967900,0.674400,158
15008,Antignac,15240,45.354500,2.560800,284
31010,Antignac,31110,42.830500,0.587600,83
85005,Antigny,85120,46.614100,-0.757600,1027
86006,Antigny,86310,46.534300,0.842700,550
21015,Antigny-la-Ville,21230,47.100600,4.559900,86
57024,Antilly,57640,49.199500,6.248100,198
60020,Antilly,60620,49.155500,2.988700,273
65015,Antin,65220,43.332400,0.290400,92
2B016,Antisanti,20270,42.157000,9.386100,591
65016,Antist,65200,43.119400,0.135700,189
37005,Antogny-le-Tillac,37800,46.969700,0.553500,485
49009,Antoigné,49260,47.079300,-0.138200,441
63005,Antoingt,63340,45.505100,3.181500,413
24011,Antonne-et-Trigonant,24420,45.227500,0.828900,1185
92002,Antony,92160,48.750700,2.297600,64263
86007,Antran,86100,46.881300,0.518200,1148
09011,Antras,09800,42.871300,0.902300,74
32003,Antras,32360,43.730400,0.446500,40
48005,Antrenas,48100,44.589400,3.254400,331
11010,Antugnac,11190,42.962700,2.217400,291
71010,Antully,71400,46.887600,4.401100,789
62036,Anvin,62134,50.450600,2.261400,700
76023,Anvéville,76560,49.700300,0.751000,291
02020,Any-Martin-Rieux,02500,49.885100,4.219000,456
63006,Anzat-le-Luguet,63420,45.326500,3.010400,167
57025,Anzeling,57320,49.270400,6.463000,480
47012,Anzex,47700,44.284900,0.170400,332
59014,Anzin,59410,50.376000,3.511200,13183
62037,Anzin-Saint-Aubin,62223,50.320600,2.738400,2833
71011,Anzy-le-Duc,71110,46.320900,4.076100,419
23004,Anzême,23000,46.259200,1.852800,551
65009,Anères,65150,43.077700,0.464700,166
38012,Aoste,38490,45.601500,5.611000,2876
51013,Aougny,51170,49.187800,3.726700,103
08016,Aouste,08290,49.796300,4.310100,196
26011,Aouste-sur-Sye,26400,44.702700,5.060400,2733
88010,Aouze,88170,48.383600,5.867500,190
57026,Apach,57480,49.460600,6.387800,1072
63007,Apchat,63420,45.378700,3.148800,162
15009,Apchon,15400,45.244600,2.701300,177
42006,Apinac,42550,45.393500,3.993900,437
81015,Appelle,81700,43.580900,1.956100,66
61005,Appenai-sous-Bellême,61130,48.339800,0.566100,275
25019,Appenans,25250,47.454900,6.568000,385
68008,Appenwihr,68280,48.026000,7.452200,586
50016,Appeville,50500,49.327500,-1.333300,200
27018,Appeville-Annebault,27290,49.325700,0.645900,1004
2A017,Appietto,20167,41.996500,8.731000,1749
60021,Appilly,60400,49.583000,3.122500,498
89013,Appoigny,89380,47.866900,3.520600,3114
38013,Apprieu,38140,45.391800,5.498300,3615
09012,Appy,09250,42.803200,1.743600,28
01011,Apremont,01100,46.204500,5.661900,415
08017,Apremont,08250,49.259000,4.967400,122
60022,Apremont,60300,49.233200,2.510400,636
70024,Apremont,70100,47.392900,5.532800,437
73017,Apremont,73190,45.499800,5.937500,979
85006,Apremont,85220,46.760000,-1.749800,2108
55012,Apremont-la-Forêt,55300,48.846700,5.620700,427
18007,Apremont-sur-Allier,18150,46.909200,3.018900,66
52014,Aprey,52250,47.773900,5.196600,187
84003,Apt,84400,43.881500,5.381400,10143
09013,Arabaux,09000,42.979900,1.635000,79
65017,Aragnouet,65170,42.778300,0.190800,289
11011,Aragon,11600,43.297400,2.303000,487
64029,Aramits,64570,43.134300,-0.720000,659
30012,Aramon,30390,43.899700,4.686900,4081
01012,Aranc,01110,45.997200,5.514000,331
64031,Arancou,64270,43.443700,-1.054400,187
01013,Arandas,01230,45.888500,5.498200,138
38297,Arandon-Passins,38510,45.706400,5.437300,1864
64032,Araujuzon,64190,43.346200,-0.827400,189
43007,Araules,43200,45.065500,4.173900,620
64033,Araux,64190,43.339400,-0.820300,136
33007,Arbanats,33640,44.667900,-0.402500,1357
31011,Arbas,31160,42.992500,0.903600,285
70025,Arbecey,70120,47.740300,5.937700,228
2A018,Arbellara,20110,41.670500,8.992600,165
01014,Arbent,01100,46.283800,5.687900,3555
01016,Arbigny,01190,46.480800,4.961300,462
52015,Arbigny-sous-Varennes,52500,47.861500,5.615000,87
73018,Arbin,73800,45.511400,6.073500,841
32004,Arblade-le-Bas,32720,43.704900,-0.175900,134
32005,Arblade-le-Haut,32110,43.741500,-0.066000,308
39013,Arbois,39600,46.887600,5.773000,3114
31012,Arbon,31160,43.001700,0.731100,93
64035,Arbonne,64210,43.420100,-1.553600,2447
77006,Arbonne-la-Forêt,77630,48.406400,2.556100,1021
34011,Arboras,34150,43.720500,3.473400,107
2A019,Arbori,20160,42.123000,8.795800,53
52016,Arbot,52160,47.846800,5.016600,60
25020,Arbouans,25400,47.488300,6.809500,876
40005,Arboucave,40320,43.606300,-0.441200,220
64036,Arbouet-Sussaute,64120,43.378300,-0.987400,313
58009,Arbourse,58350,47.247800,3.227500,123
66007,Arboussols,66320,42.666900,2.495300,130
01015,Arboys en Bugey,01300,45.718900,5.640400,710
35005,Arbrissel,35130,47.928300,-1.290900,266
64037,Arbus,64230,43.325300,-0.509400,1226
74015,Arbusigny,74930,46.089000,6.201200,1167
65018,Arbéost,65560,42.976200,-0.270700,73
64034,Arbérats-Sillègue,64120,43.340000,-0.991200,329
52017,Arc-en-Barrois,52210,47.948500,5.017900,671
25021,Arc-et-Senans,25610,47.034400,5.768600,1620
70026,Arc-lès-Gray,70100,47.462000,5.582800,2393
25025,Arc-sous-Cicon,25520,47.052400,6.403800,768
25026,Arc-sous-Montenot,25270,46.914800,6.008600,227
21021,Arc-sur-Tille,21560,47.339400,5.200700,2584
33009,Arcachon,33120,44.651500,-1.171800,11092
46007,Arcambal,46090,44.455700,1.543200,1004
64038,Arcangues,64200,43.426100,-1.507900,3657
21016,Arceau,21310,47.377500,5.197800,980
21017,Arcenant,21700,47.140700,4.840700,518
07012,Arcens,07310,44.896300,4.318400,346
17015,Arces,17120,45.553600,-0.895900,716
89014,Arces-Dilo,89320,48.104700,3.587700,615
21018,Arcey,21410,47.273700,4.826400,51
25022,Arcey,25750,47.520700,6.651000,1489
04009,Archail,04420,44.115000,6.330900,14
74016,Archamps,74160,46.120700,6.141700,2375
39014,Archelange,39290,47.152300,5.516300,219
15010,Arches,15200,45.297000,2.315200,192
88011,Arches,88380,48.108100,6.507700,1617
88012,Archettes,88380,48.132400,6.548400,1113
17016,Archiac,17520,45.521400,-0.301600,773
24012,Archignac,24590,45.016200,1.292200,409
03005,Archignat,03380,46.363400,2.410200,321
86009,Archigny,86210,46.668200,0.684600,1058
17017,Archingeay,17380,45.931200,-0.720600,765
02021,Archon,02360,49.744400,4.117600,76
42007,Arcinges,42460,46.135100,4.287700,216
33010,Arcins,33460,45.076200,-0.707100,540
51014,Arcis-le-Ponsart,51170,49.223500,3.686800,285
10006,Arcis-sur-Aube,10700,48.527500,4.140300,2785
28236,Arcisses,28400,48.336500,0.890000,2197
65019,Arcizac-Adour,65360,43.150200,0.089400,614
65020,Arcizac-ez-Angles,65100,43.095100,0.017100,248
65021,Arcizans-Avant,65400,42.960300,-0.119200,397
65022,Arcizans-Dessus,65400,42.996200,-0.162300,116
18009,Arcomps,18200,46.674300,2.419700,280
42008,Arcon,42370,46.009100,3.866900,106
21020,Arconcey,21320,47.217600,4.463300,217
63008,Arconsat,63250,45.900400,3.715400,565
10007,Arconville,10200,48.157300,4.732100,108
94003,Arcueil,94110,48.805300,2.332800,22200
02022,Arcy-Sainte-Restitue,02130,49.255700,3.477600,396
89015,Arcy-sur-Cure,89270,47.590900,3.765800,486
28008,Ardelles,28170,48.544500,1.176800,211
28009,Ardelu,28700,48.354400,1.913500,72
18010,Ardenais,18170,46.647100,2.348700,205
72007,Ardenay-sur-Mérize,72370,47.991600,0.430100,504
65023,Ardengost,65240,42.927300,0.413200,12
36005,Ardentes,36120,46.737300,1.815100,3715
63009,Ardes,63420,45.397800,3.127000,592
08018,Ardeuil-et-Montfauxelles,08400,49.267200,4.704800,79
17018,Ardillières,17290,46.044900,-0.893700,890
79012,Ardin,79160,46.489000,-0.559700,1257
32007,Ardizas,32430,43.726200,0.997700,217
31013,Ardiège,31210,43.064700,0.642400,381
07013,Ardoix,07290,45.189300,4.747200,1308
39015,Ardon,39300,46.771900,5.877300,109
45006,Ardon,45160,47.782500,1.874500,1203
76024,Ardouval,76680,49.739700,1.272900,158
62038,Ardres,62610,50.877200,1.982700,4389
2B020,Aregno,20220,42.594300,8.876500,588
41003,Areines,41100,47.797600,1.102100,572
76401,Arelaune-en-Seine,76940,49.465400,0.749200,2546
64039,Aren,64400,43.247100,-0.723300,246
40006,Arengosse,40110,44.029900,-0.781100,711
74018,Arenthon,74800,46.096100,6.338100,2097
39586,Aresches,39110,46.894200,5.921500,27
64041,Aressy,64320,43.277700,-0.327200,881
64040,Arette,64570,43.030400,-0.737100,1032
23005,Arfeuille-Châtain,23700,46.061600,2.436200,193
03006,Arfeuilles,03120,46.146800,3.738800,594
81016,Arfons,81110,43.419300,2.186500,188
64042,Argagnon,64300,43.462400,-0.674100,690
14019,Arganchy,14400,49.229500,-0.730400,220
57028,Argancy,57640,49.200300,6.214100,1381
10008,Argançon,10140,48.250800,4.597200,101
09014,Argein,09800,42.927800,0.989600,195
11012,Argeliers,11120,43.309000,2.913700,2124
34012,Argelliers,34380,43.732600,3.676400,1002
40007,Argelos,40700,43.581300,-0.619600,160
64043,Argelos,64450,43.448900,-0.346600,263
40008,Argelouse,40430,44.372800,-0.635900,92
65024,Argelès-Bagnères,65200,43.091000,0.197200,103
65025,Argelès-Gazost,65400,43.007100,-0.096600,2761
66008,Argelès-sur-Mer,66700,42.530000,3.023400,10616
14020,Argences,14370,49.135000,-0.158100,3959
12223,Argences en Aubrac,12210,44.781300,2.809800,1581
11013,Argens-Minervois,11200,43.245800,2.769200,395
18011,Argent-sur-Sauldre,18410,47.562500,2.422300,2023
61006,Argentan,61200,48.726300,-0.013000,13527
19010,Argentat-sur-Dordogne,19320,45.116600,1.931900,2881
89016,Argentenay,89160,47.820200,4.115900,82
95018,Argenteuil,95100,48.950100,2.247800,106130
89017,Argenteuil-sur-Armançon,89160,47.742100,4.092800,219
73019,Argentine,73220,45.493900,6.334100,959
77007,Argentières,77390,48.652400,2.868600,361
47013,Argenton,47250,44.383400,0.066100,331
36006,Argenton-sur-Creuse,36200,46.575200,1.494000,4786
79013,Argentonnay,79150,46.972100,-0.416400,3234
53007,Argentré,53210,48.094200,-0.624000,2906
35006,Argentré-du-Plessis,35370,48.050500,-1.139500,4633
28010,Argenvilliers,28480,48.275300,0.972400,310
18012,Argenvières,18140,47.140600,2.992900,448
51015,Argers,51800,49.065400,4.859700,110
64044,Arget,64410,43.545500,-0.533600,76
30013,Argilliers,30210,43.981900,4.490000,436
70027,Argillières,70600,47.662800,5.625100,72
21022,Argilly,21700,47.065800,5.028000,542
01017,Argis,01230,45.932200,5.481900,419
2A021,Argiusta-Moriccio,20140,41.813800,9.032500,75
90004,Argiésans,90800,47.607200,6.820700,607
29001,Argol,29560,48.244300,-4.304700,1065
74019,Argonay,74370,45.947600,6.148000,3807
80025,Argoules,80120,50.334600,1.821800,322
76025,Argueil,76780,49.548000,1.533100,349
80026,Arguel,80140,49.876300,1.806500,31
31014,Arguenos,31160,42.958900,0.728400,90
31015,Argut-Dessous,31440,42.892400,0.715100,21
36007,Argy,36500,46.940800,1.463200,559
80024,Argœuves,80470,49.939400,2.245000,543
64045,Arhansus,64120,43.256900,-1.023600,66
65026,Aries-Espénan,65230,43.276900,0.529900,91
81017,Arifat,81360,43.774500,2.355600,128
09015,Arignac,09400,42.875000,1.598400,719
39016,Arinthod,39240,46.391700,5.588200,1149
73020,Arith,73340,45.723800,6.061300,456
63010,Arlanc,63220,45.423900,3.734900,1785
39017,Arlay,39140,46.767000,5.538300,1182
07014,Arlebosc,07410,45.038100,4.628000,380
43008,Arlempdes,43490,44.867700,3.906800,156
13004,Arles,13104,43.544100,4.651300,51811
66009,Arles-sur-Tech,66150,42.453100,2.622800,2815
43009,Arlet,43380,45.111200,3.407600,24
58010,Arleuf,58430,47.038800,4.017500,637
59015,Arleux,59151,50.283400,3.104100,3125
62039,Arleux-en-Gohelle,62580,50.364600,2.867300,960
31017,Arlos,31440,42.878200,0.693300,106
49010,Armaillé,49420,47.713500,-1.142500,320
60023,Armancourt,60880,49.370000,2.765600,548
80027,Armancourt,80700,49.678000,2.714300,33
54021,Armaucourt,54760,48.809600,6.297900,239
59016,Armbouts-Cappel,59380,50.982300,2.350600,2077
89018,Armeau,89500,48.047400,3.333600,753
64046,Armendarits,64640,43.296300,-1.165100,398
32008,Armentieux,32230,43.521900,0.096600,73
59017,Armentières,59280,50.692500,2.878700,26998
77008,Armentières-en-Brie,77440,48.977300,3.012400,1176
27019,Armentières-sur-Avre,27820,48.683300,0.802900,162
02023,Armentières-sur-Ourcq,02210,49.173100,3.391600,96
58011,Armes,58500,47.464000,3.559100,266
47014,Armillac,47800,44.555200,0.390900,209
11014,Armissan,11110,43.188800,3.088800,1461
01019,Armix,01510,45.852300,5.583700,25
32009,Armous-et-Cau,32230,43.570700,0.188300,96
74020,Armoy,74200,46.353000,6.514300,1564
15011,Arnac,15150,45.064600,2.220400,174
19011,Arnac-Pompadour,19230,45.411800,1.366000,1205
87003,Arnac-la-Poste,87160,46.259400,1.373100,902
12009,Arnac-sur-Dourdou,12360,43.718900,2.948400,47
72008,Arnage,72230,47.930600,0.191700,5445
52019,Arnancourt,52110,48.350400,4.919700,78
69013,Arnas,69400,46.019400,4.710200,4601
31018,Arnaud-Guilhem,31360,43.146600,0.901000,230
09016,Arnave,09400,42.851800,1.648000,208
54022,Arnaville,54530,49.017600,6.025100,556
21023,Arnay-le-Duc,21230,47.121500,4.486000,1342
21024,Arnay-sous-Vitteaux,21350,47.434300,4.505600,113
26012,Arnayon,26470,44.496300,5.316500,27
08021,Arnicourt,08300,49.554300,4.340000,148
27020,Arnières-sur-Iton,27180,48.991600,1.103200,1643
64048,Arnos,64370,43.458400,-0.532800,131
95019,Arnouville,95400,48.986700,2.416800,15023
78020,Arnouville-lès-Mantes,78790,48.911000,1.722500,951
59018,Arnèke,59285,50.840900,2.418800,1594
65028,Arné,65670,43.174700,0.493100,181
64047,Arnéguy,64220,43.082100,-1.278700,237
88013,Aroffe,88170,48.411200,5.899700,93
39018,Aromas,39240,46.313500,5.487100,580
53008,Aron,53440,48.305800,-0.553900,1828
64049,Aroue-Ithorots-Olhaïby,64120,43.312500,-0.929000,240
70028,Aroz,70360,47.614900,6.005600,144
30014,Arpaillargues-et-Aureillac,30700,43.998500,4.368700,1039
91021,Arpajon,91290,48.589400,2.246200,11698
15012,Arpajon-sur-Cère,15130,44.879000,2.463100,6361
26013,Arpavon,26110,44.370600,5.273900,73
70029,Arpenans,70200,47.622800,6.412700,245
18013,Arpheuilles,18200,46.788700,2.572600,299
36008,Arpheuilles,36700,46.902100,1.275400,240
03007,Arpheuilles-Saint-Priest,03420,46.227300,2.669900,383
30015,Arphy,30120,44.041400,3.587500,139
53009,Arquenay,53170,47.981600,-0.593200,674
11015,Arques,11190,42.944500,2.387800,248
12010,Arques,12290,44.320000,2.806300,159
62040,Arques,62510,50.738800,2.317700,9431
76026,Arques-la-Bataille,76880,49.878900,1.153900,2412
11016,Arquettes-en-Val,11220,43.106100,2.493800,83
58012,Arquian,58310,47.531300,3.000800,540
80028,Arquèves,80560,50.075100,2.477600,152
54023,Arracourt,54370,48.727400,6.536200,254
56003,Arradon,56610,47.633100,-2.823900,5835
57027,Arraincourt,57380,48.975800,6.530700,126
91022,Arrancourt,91690,48.327900,2.148900,115
02024,Arrancy,02860,49.498500,3.764700,45
55013,Arrancy-sur-Crusnes,55230,49.412700,5.649900,466
21025,Arrans,21500,47.689700,4.328200,65
62041,Arras,62000,50.289300,2.767900,42875
65029,Arras-en-Lavedan,65400,42.964600,-0.143200,501
07015,Arras-sur-Rhône,07370,45.143000,4.806900,529
64050,Arrast-Larrebieu,64130,43.282400,-0.847600,96
64051,Arraute-Charritte,64120,43.415500,-1.116800,440
54024,Arraye-et-Han,54760,48.837700,6.297200,370
65247,Arrayou-Lahitte,65100,43.092000,0.043700,99
30016,Arre,30120,43.958400,3.525800,252
65031,Arreau,65240,42.915400,0.333700,725
10009,Arrelles,10340,48.045800,4.283500,90
10010,Arrembécourt,10330,48.541100,4.611700,47
65032,Arrens-Marsous,65400,42.908900,-0.251700,694
10011,Arrentières,10200,48.268400,4.739600,176
88014,Arrentès-de-Corcieux,88430,48.133600,6.871600,169
80029,Arrest,80820,50.130500,1.619400,820
08022,Arreux,08090,49.826600,4.661200,353
57029,Arriance,57580,49.016200,6.504100,213
64052,Arricau-Bordes,64350,43.501500,-0.144100,105
64053,Arrien,64420,43.312200,-0.164100,197
09017,Arrien-en-Bethmale,09800,42.874100,1.052000,134
30017,Arrigas,30770,43.992700,3.480600,219
51016,Arrigny,51290,48.603600,4.693600,227
2A022,Arro,20151,42.097900,8.801100,80
65034,Arrodets,65130,43.030500,0.280300,23
65033,Arrodets-ez-Angles,65100,43.070100,0.040400,113
14021,Arromanches-les-Bains,14117,49.335400,-0.621700,413
03008,Arronnes,03250,46.051300,3.571400,378
95023,Arronville,95810,49.173400,2.118900,618
64054,Arros-de-Nay,64800,43.181500,-0.296500,820
64056,Arrosès,64350,43.545000,-0.113800,136
09018,Arrout,09800,42.947600,1.020600,92
32010,Arrouède,32140,43.359900,0.583500,85
57030,Arry,57680,48.993000,6.055300,517
80030,Arry,80120,50.281500,1.720200,212
23006,Arrènes,23210,46.071400,1.568300,202
16018,Ars,16130,45.636300,-0.403000,686
23007,Ars,23480,46.003400,2.082900,239
57031,Ars-Laquenexy,57530,49.085500,6.268000,934
17019,Ars-en-Ré,17590,46.212100,-1.508400,1314
63011,Ars-les-Favets,63700,46.202300,2.753800,220
01021,Ars-sur-Formans,01480,45.990400,4.819500,1528
57032,Ars-sur-Moselle,57130,49.085300,6.048300,4616
33012,Arsac,33460,44.986900,-0.701800,4124
43010,Arsac-en-Velay,43700,44.991400,3.953300,1219
40011,Arsague,40330,43.581000,-0.789000,348
70030,Arsans,70100,47.367200,5.631200,42
10012,Arsonval,10200,48.277400,4.645300,290
39020,Arsure-Arsurette,39250,46.714900,6.082700,100
60024,Arsy,60190,49.402800,2.696400,832
54025,Art-sur-Meurthe,54510,48.660400,6.258500,1700
65035,Artagnan,65500,43.409000,0.081200,504
08023,Artaise-le-Vivier,08390,49.571100,4.893700,64
71012,Artaix,71110,46.248000,3.986800,353
65036,Artalens-Souin,65400,42.978500,-0.039300,140
37006,Artannes-sur-Indre,37260,47.273500,0.591800,2795
49011,Artannes-sur-Thouet,49260,47.204200,-0.097800,405
38015,Artas,38440,45.538500,5.167600,1799
40012,Artassenx,40090,43.846100,-0.395000,262
01022,Artemare,01510,45.870100,5.692000,1139
02025,Artemps,02480,49.762300,3.196000,361
45008,Artenay,45410,48.077300,1.879200,1997
74021,Arthaz-Pont-Notre-Dame,74380,46.160300,6.266000,1713
58013,Arthel,58700,47.243000,3.410400,89
17020,Arthenac,17520,45.505800,-0.328500,334
40013,Arthez-d'Armagnac,40190,43.895100,-0.246000,92
64058,Arthez-d'Asson,64800,43.080800,-0.253200,457
64057,Arthez-de-Béarn,64370,43.469300,-0.624200,1837
72009,Arthezé,72270,47.791400,-0.113100,350
95024,Arthies,95420,49.093500,1.797700,265
36009,Arthon,36330,46.695000,1.715600,1215
89019,Arthonnay,89740,47.935700,4.240300,150
42009,Arthun,42130,45.765300,4.036900,532
81018,Arthès,81160,43.965300,2.226800,2528
26014,Arthémonay,26260,45.141100,5.063200,613
09019,Artigat,09130,43.145600,1.448000,574
83005,Artignosc-sur-Verdon,83630,43.699100,6.108700,311
31019,Artigue,31110,42.826800,0.640900,36
64059,Artigueloutan,64420,43.269900,-0.245400,1105
64060,Artiguelouve,64230,43.312500,-0.470200,2045
65037,Artiguemy,65130,43.127000,0.245000,87
09020,Artigues,09460,42.690300,2.040900,30
11017,Artigues,11140,42.789500,2.204400,72
65038,Artigues,65100,43.071200,0.000700,13
83006,Artigues,83560,43.580200,5.800000,282
33013,Artigues-près-Bordeaux,33370,44.859200,-0.487800,8687
41004,Artins,41800,47.749600,0.753400,266
09021,Artix,09120,43.066300,1.563400,113
64061,Artix,64170,43.398400,-0.572800,3477
67011,Artolsheim,67390,48.210000,7.603000,1005
63012,Artonne,63460,46.006100,3.148900,912
59019,Artres,59269,50.296100,3.538500,1082
68009,Artzenheim,68320,48.115500,7.545200,857
64062,Arudy,64260,43.098700,-0.469500,2228
40014,Arue,40120,44.051000,-0.360700,356
17021,Arvert,17530,45.745100,-1.124500,3917
33015,Arveyres,33500,44.890000,-0.279800,2056
12011,Arvieu,12120,44.190800,2.670400,774
05007,Arvieux,05350,44.762300,6.718100,340
09022,Arvigna,09100,43.057700,1.728300,238
73021,Arvillard,73110,45.405200,6.160000,861
77009,Arville,77890,48.181900,2.557800,145
80031,Arvillers,80910,49.730700,2.636400,759
01453,Arvière-en-Valromey,01260,45.915300,5.734600,717
40015,Arx,40310,44.108700,0.084300,57
64063,Arzacq-Arraziguet,64410,43.542500,-0.429900,1077
56004,Arzal,56190,47.526000,-2.402100,1846
29002,Arzano,29300,47.894400,-3.450800,1441
58014,Arzembouy,58700,47.245200,3.359600,70
48007,Arzenc-d'Apcher,48310,44.844800,3.112900,52
48008,Arzenc-de-Randon,48170,44.659800,3.608000,191
11018,Arzens,11290,43.196800,2.208200,1174
51017,Arzillières-Neuville,51290,48.641900,4.604100,322
56005,Arzon,56640,47.549900,-2.903100,2271
57033,Arzviller,57405,48.722000,7.163400,516
74014,Arâches-la-Frasse,74300,46.028200,6.664600,1764
79010,Arçais,79210,46.300200,-0.698200,615
18008,Arçay,18340,46.963800,2.336500,500
86008,Arçay,86200,46.954400,0.001200,343
25024,Arçon,25300,46.970200,6.384300,961
72006,Arçonnay,72610,48.396300,0.082600,1902
33011,Arès,33740,44.799700,-1.083700,6482
64064,Asasp-Arros,64660,43.110200,-0.632600,516
64065,Ascain,64310,43.338300,-1.628300,4658
64066,Ascarat,64220,43.182600,-1.262100,348
67012,Aschbach,67250,48.941100,7.978900,633
45009,Aschères-le-Marché,45170,48.110300,2.004300,1157
2B023,Asco,20276,42.438600,8.992400,116
09023,Ascou,09110,42.719000,1.923800,113
45010,Ascoux,45300,48.129400,2.251400,1062
06005,Ascros,06260,43.917100,7.015900,174
08024,Asfeld,08190,49.476700,4.123500,1082
86010,Aslonnes,86340,46.452100,0.340000,1136
58015,Asnan,58420,47.310500,3.551900,118
39022,Asnans-Beauvoisin,39120,46.938500,5.400100,713
14022,Asnelles,14960,49.332800,-0.583700,642
27021,Asnières,27260,49.203300,0.403000,335
14023,Asnières-en-Bessin,14710,49.360500,-0.938300,73
21026,Asnières-en-Montagne,21500,47.712500,4.297400,160
79015,Asnières-en-Poitou,79170,46.089600,-0.211400,188
17022,Asnières-la-Giraud,17400,45.894600,-0.505200,977
21027,Asnières-lès-Dijon,21380,47.386600,5.046000,1310
89020,Asnières-sous-Bois,89660,47.478800,3.642900,113
86011,Asnières-sur-Blour,86430,46.150100,0.780000,193
16019,Asnières-sur-Nouère,16290,45.706900,0.047700,1272
95026,Asnières-sur-Oise,95270,49.138700,2.389500,3127
01023,Asnières-sur-Saône,01570,46.385900,4.882000,78
92004,Asnières-sur-Seine,92600,48.918100,2.293500,93941
72010,Asnières-sur-Vègre,72430,47.889000,-0.224700,331
58016,Asnois,58190,47.401100,3.586800,141
86012,Asnois,86250,46.099800,0.412900,129
57034,Aspach,57790,48.653900,6.967600,40
68010,Aspach,68130,47.642000,7.230600,1138
68012,Aspach-Michelbach,68700,47.774400,7.122600,1747
68011,Aspach-le-Bas,68700,47.767600,7.151300,1262
31020,Aspet,31160,43.012700,0.807600,907
65039,Aspin-Aure,65240,42.937800,0.330300,43
65040,Aspin-en-Lavedan,65100,43.073700,-0.049400,294
34013,Aspiran,34800,43.565400,3.449900,1672
05008,Aspremont,05140,44.493400,5.715400,364
06006,Aspremont,06790,43.777200,7.242300,2346
05009,Aspres-lès-Corps,05800,44.814500,6.003000,102
05010,Aspres-sur-Buëch,05140,44.556500,5.769500,828
31021,Aspret-Sarrat,31800,43.069400,0.718100,130
12012,Asprières,12700,44.551700,2.141200,753
30018,Aspères,30250,43.806600,4.032500,563
65041,Asque,65130,43.027700,0.249800,123
33016,Asques,33240,44.948700,-0.424800,440
82004,Asques,82120,44.008400,0.950900,133
89021,Asquins,89450,47.491000,3.743600,305
81019,Assac,81340,43.979000,2.430600,151
80032,Assainvillers,80500,49.623600,2.599100,136
79016,Assais-les-Jumeaux,79600,46.784600,-0.069200,763
34014,Assas,34820,43.714400,3.903900,1405
64067,Assat,64510,43.257600,-0.287800,2068
37007,Assay,37120,47.064400,0.272200,177
10013,Assenay,10320,48.178500,4.064800,133
10014,Assencières,10220,48.356600,4.201400,190
57035,Assenoncourt,57260,48.766000,6.796900,115
59021,Assevent,59600,50.288000,4.020200,1769
80033,Assevillers,80200,49.897600,2.842200,311
46009,Assier,46320,44.672100,1.872500,709
38017,Assieu,38150,45.410200,4.880000,1726
34015,Assignan,34360,43.399700,2.886400,174
18014,Assigny,18260,47.432700,2.749500,159
02027,Assis-sur-Serre,02270,49.678800,3.554700,209
64068,Asson,64800,43.103500,-0.243200,1982
67013,Asswiller,67320,48.879200,7.225400,268
72011,Assé-le-Boisne,72130,48.318800,-0.011200,881
53010,Assé-le-Bérenger,53600,48.155300,-0.319500,395
72012,Assé-le-Riboul,72170,48.202100,0.083300,479
44006,Assérac,44410,47.442000,-2.412700,1890
47015,Astaffort,47220,44.060700,0.654000,1972
19012,Astaillac,19120,44.950900,1.829600,204
64069,Aste-Béon,64260,43.030800,-0.397600,231
07018,Astet,07330,44.684100,4.021100,59
53011,Astillé,53230,47.959300,-0.849300,895
64070,Astis,64450,43.438400,-0.321000,353
09024,Aston,09310,42.697800,1.660300,197
65043,Astugue,65200,43.095400,0.072700,263
65042,Asté,65200,43.011400,0.212700,568
70031,Athesans-Étroitefontaine,70110,47.592400,6.517800,631
21029,Athie,21500,47.559200,4.260000,82
89022,Athie,89440,47.539900,3.992500,135
54026,Athienville,54370,48.717200,6.480000,163
62042,Athies,62223,50.309300,2.841600,1038
80034,Athies,80200,49.855200,2.977800,614
02028,Athies-sous-Laon,02840,49.575400,3.690500,2578
51018,Athis,51150,49.002200,4.130200,885
91027,Athis-Mons,91200,48.709300,2.384800,36613
61007,Athis-Val de Rouvre,61100,48.793400,-0.462100,4201
64071,Athos-Aspis,64390,43.412200,-0.962900,213
21028,Athée,21130,47.218900,5.358700,815
53012,Athée,53400,47.886800,-0.933500,451
37008,Athée-sur-Cher,37270,47.314300,0.895800,2855
95028,Attainville,95570,49.060700,2.352200,1904
52021,Attancourt,52130,48.536500,4.941900,275
68013,Attenschwiller,68220,47.567500,7.468700,959
59022,Attiches,59551,50.509400,3.060500,2245
60025,Attichy,60350,49.425000,3.044100,1857
01024,Attignat,01340,46.285800,5.182300,3409
73022,Attignat-Oncin,73610,45.515100,5.782500,574
08025,Attigny,08130,49.475600,4.591500,1094
88016,Attigny,88260,48.062400,6.024900,200
88015,Attignéville,88300,48.396900,5.826600,219
57036,Attilloncourt,57170,48.800200,6.385000,98
02029,Attilly,02490,49.855700,3.153300,337
62044,Attin,62170,50.492600,1.753300,885
54027,Atton,54700,48.897300,6.107400,897
45011,Attray,45170,48.115800,2.123400,208
70032,Attricourt,70100,47.487600,5.411700,47
40016,Aubagnan,40700,43.664800,-0.499600,277
13005,Aubagne,13400,43.290400,5.564300,47529
21030,Aubaine,21360,47.131200,4.731100,89
30019,Aubais,30250,43.749800,4.142200,2925
65044,Aubarède,65350,43.271900,0.250100,283
24014,Aubas,24290,45.080400,1.199200,614
43011,Aubazat,43380,45.126500,3.450100,175
19013,Aubazines,19190,45.187300,1.689100,856
57037,Aube,57580,49.026400,6.336900,268
61008,Aube,61270,48.731200,0.547900,1254
07019,Aubenas,07200,44.610700,4.394200,12416
04012,Aubenas-les-Alpes,04110,43.935900,5.675700,90
26015,Aubenasson,26340,44.678200,5.144800,74
59023,Aubencheul-au-Bac,59265,50.251800,3.164100,549
02030,Aubencheul-aux-Bois,02420,50.024800,3.261400,238
02031,Aubenton,02500,49.825400,4.192800,658
77010,Aubepierre-Ozouer-le-Repos,77720,48.619000,2.895100,984
52022,Aubepierre-sur-Aube,52210,47.914500,4.955200,180
59024,Auberchicourt,59165,50.330800,3.227000,4626
80035,Aubercourt,80110,49.839100,2.546700,69
78029,Aubergenville,78410,48.960900,1.844000,12723
52023,Auberive,52160,47.784300,5.094800,166
38018,Auberives-en-Royans,38680,45.065600,5.312000,367
38019,Auberives-sur-Varèze,38550,45.426000,4.816200,1501
76030,Aubermesnil-Beaumais,76550,49.849300,1.120800,520
76029,Aubermesnil-aux-Érables,76340,49.810000,1.569000,195
59025,Aubers,59249,50.599500,2.818700,1749
64072,Aubertin,64290,43.272400,-0.481600,671
14024,Auberville,14640,49.310600,-0.027500,609
76032,Auberville-la-Manuel,76450,49.828800,0.583500,138
76033,Auberville-la-Renault,76110,49.686800,0.379700,449
93001,Aubervilliers,93300,48.912800,2.388600,88365
05039,Aubessagne,05500,44.739000,6.031100,740
10015,Aubeterre,10150,48.421500,4.107800,398
16020,Aubeterre-sur-Dronne,16390,45.263500,0.166400,312
33017,Aubiac,33430,44.471300,-0.243800,317
47016,Aubiac,47310,44.137800,0.568700,1174
63013,Aubiat,63260,45.979200,3.197700,1023
32012,Aubiet,32270,43.651600,0.780900,1134
84004,Aubignan,84810,44.096200,5.033100,5981
07020,Aubignas,07400,44.585400,4.630900,476
04013,Aubignosc,04200,44.121100,5.954200,616
03009,Aubigny,03460,46.677400,3.166900,146
14025,Aubigny,14700,48.913600,-0.215400,291
79019,Aubigny,79390,46.728300,-0.105500,178
80036,Aubigny,80800,49.889300,2.472000,502
85008,Aubigny-Les Clouzeaux,85430,46.612300,-1.479400,7191
59026,Aubigny-au-Bac,59265,50.266500,3.166400,1143
02032,Aubigny-aux-Kaisnes,02590,49.772400,3.116700,231
62045,Aubigny-en-Artois,62690,50.350100,2.583300,1489
02033,Aubigny-en-Laonnois,02820,49.495000,3.792100,102
21031,Aubigny-en-Plaine,21170,47.129900,5.162800,541
21032,Aubigny-la-Ronce,21340,46.989200,4.598600,172
08026,Aubigny-les-Pothées,08150,49.764600,4.425900,306
21033,Aubigny-lès-Sombernon,21540,47.299100,4.642500,175
18015,Aubigny-sur-Nère,18700,47.485700,2.420900,5451
35007,Aubigné,35250,48.298300,-1.631200,453
79018,Aubigné,79110,46.038200,-0.147700,163
72013,Aubigné-Racan,72800,47.684000,0.250400,2158
49012,Aubigné-sur-Layon,49540,47.212700,-0.474500,347
51020,Aubilly,51170,49.212200,3.853600,50
12013,Aubin,12110,44.530900,2.253100,3444
64073,Aubin,64230,43.436300,-0.422300,265
62046,Aubin-Saint-Vaast,62140,50.386400,1.966200,733
18016,Aubinges,18220,47.220200,2.589300,401
63014,Aubière,63170,45.752000,3.127200,10459
08027,Auboncourt-Vauzelles,08270,49.557400,4.480300,95
25029,Aubonne,25520,47.041700,6.344600,266
30020,Aubord,30620,43.753300,4.316200,2253
64074,Aubous,64330,43.575200,-0.139800,45
54028,Auboué,54580,49.212500,5.975200,2650
26016,Aubres,26110,44.392500,5.155100,420
08028,Aubrives,08320,50.086500,4.766800,951
62047,Aubrometz,62390,50.303700,2.176100,141
59027,Aubry-du-Hainaut,59494,50.376900,3.452400,1705
61010,Aubry-le-Panthou,61120,48.853100,0.221900,133
55014,Aubréville,55120,49.159800,5.097900,375
68014,Aubure,68150,48.198900,7.209000,353
30021,Aubussargues,30190,44.011000,4.325600,333
23008,Aubusson,23200,45.947200,2.170100,3018
61011,Aubusson,61100,48.779400,-0.553400,391
63015,Aubusson-d'Auvergne,63120,45.751900,3.599900,215
80037,Aubvillers,80110,49.710800,2.478700,170
59028,Auby,59950,50.414300,3.061200,7083
76028,Aubéguimont,76390,49.809700,1.681600,186
51019,Aubérive,51600,49.195900,4.411400,241
22003,Aucaleuc,22100,48.452000,-2.123700,973
31022,Aucamville,31140,43.671400,1.424300,9623
82005,Aucamville,82600,43.793200,1.227800,1562
09025,Aucazein,09800,42.925100,0.967300,65
26017,Aucelon,26340,44.615800,5.342200,17
50019,Aucey-la-Plaine,50170,48.526800,-1.478600,412
32013,Auch,32000,43.660200,0.567300,22428
85009,Auchay-sur-Vendée,85200,46.436600,-0.873900,1122
62048,Auchel,62260,50.510800,2.465600,10051
80038,Auchonvillers,80560,50.083400,2.633100,125
62049,Auchy-au-Bois,62190,50.550100,2.372800,548
60026,Auchy-la-Montagne,60360,49.574200,2.121000,562
62051,Auchy-les-Mines,62138,50.504100,2.781200,4625
59029,Auchy-lez-Orchies,59310,50.482200,3.199500,1599
62050,Auchy-lès-Hesdin,62770,50.409600,2.097300,1513
65045,Aucun,65400,42.986000,-0.198600,267
64075,Audaux,64190,43.376000,-0.775500,171
39024,Audelange,39700,47.140200,5.587600,256
52025,Audeloncourt,52240,48.118200,5.532200,77
62052,Audembert,62250,50.858500,1.692400,424
33019,Audenge,33980,44.713300,-0.953300,9596
03010,Audes,03190,46.461000,2.557800,402
25030,Audeux,25170,47.257800,5.868900,420
45012,Audeville,45300,48.280800,2.242700,179
29003,Audierne,29770,48.028000,-4.565100,3727
02034,Audignicourt,02300,49.477900,3.126800,104
59031,Audignies,59570,50.278300,3.823900,359
40017,Audignon,40500,43.724200,-0.593500,386
02035,Audigny,02120,49.865100,3.631400,273
25031,Audincourt,25400,47.477900,6.849800,14071
62053,Audincthun,62560,50.581800,2.123500,684
62054,Audinghen,62179,50.851400,1.614200,617
40018,Audon,40400,43.799600,-0.828000,409
50021,Audouville-la-Hubert,50480,49.418300,-1.224600,78
62055,Audrehem,62890,50.771300,1.983000,521
09026,Audressein,09800,42.929400,1.018400,144
62056,Audresselles,62164,50.828800,1.613100,608
14026,Audrieu,14250,49.204700,-0.601500,1167
24015,Audrix,24260,44.884100,0.949700,287
62057,Audruicq,62370,50.880900,2.085800,5309
54029,Audun-le-Roman,54560,49.363900,5.893900,2483
57038,Audun-le-Tiche,57390,49.461900,5.959300,7356
78030,Auffargis,78610,48.682400,1.899400,1963
77011,Aufferville,77570,48.202800,2.602200,482
78031,Auffreville-Brasseuil,78930,48.954300,1.705700,671
08029,Auflance,08370,49.615300,5.292200,82
64077,Auga,64450,43.479500,-0.378700,189
56006,Augan,56800,47.910900,-2.272200,1569
08030,Auge,08380,49.856600,4.268000,58
23009,Auge,23170,46.236500,2.329500,92
39025,Augea,39190,46.562900,5.389400,285
60027,Auger-Saint-Vincent,60800,49.210400,2.814500,515
39026,Augerans,39380,47.026800,5.586700,188
63016,Augerolles,63930,45.734300,3.637200,862
77012,Augers-en-Brie,77560,48.666800,3.354000,265
45013,Augerville-la-Rivière,45330,48.254200,2.419300,211
70035,Augicourt,70500,47.769200,5.891300,175
24016,Augignac,24300,45.583200,0.703100,820
09027,Augirein,09800,42.914300,0.920700,80
39027,Augisey,39270,46.556000,5.494700,191
63017,Augnat,63340,45.412900,3.178900,183
32014,Augnax,32120,43.724600,0.774600,132
87004,Augne,87120,45.771500,1.700700,126
57039,Augny,57685,49.053800,6.109700,2207
61012,Auguaise,61270,48.696400,0.552100,196
02036,Augy,02220,49.340500,3.511700,72
89023,Augy,89290,47.771200,3.621400,954
18017,Augy-sur-Aubois,18600,46.778800,2.859100,278
23010,Augères,23210,46.078100,1.728100,117
79020,Augé,79400,46.452000,-0.287200,892
17023,Aujac,17770,45.844100,-0.401300,372
30022,Aujac,30450,44.355900,4.016900,147
32015,Aujan-Mournède,32300,43.374800,0.501600,89
30023,Aujargues,30250,43.791800,4.125300,815
52027,Aujeurres,52190,47.739100,5.171400,73
46010,Aujols,46090,44.423400,1.540200,383
26018,Aulan,26570,44.228900,5.419700,8
30024,Aulas,30120,43.995500,3.589600,456
63160,Aulhat-Flat,63500,45.574100,3.311000,944
2A024,Aullène,20116,41.811000,9.092900,184
63019,Aulnat,63510,45.792400,3.172600,4139
10017,Aulnay,10240,48.476400,4.414900,108
17024,Aulnay,17470,46.019200,-0.348700,1410
86013,Aulnay,86330,46.906400,0.094400,107
51022,Aulnay-l'Aître,51240,48.826200,4.567400,168
45014,Aulnay-la-Rivière,45390,48.207800,2.375300,511
93005,Aulnay-sous-Bois,93600,48.945700,2.491800,87599
27023,Aulnay-sur-Iton,27180,48.992400,1.052800,710
51023,Aulnay-sur-Marne,51150,48.998600,4.209100,279
78033,Aulnay-sur-Mauldre,78126,48.929400,1.840000,1180
88017,Aulnois,88300,48.261700,5.778700,159
55015,Aulnois-en-Perthois,55170,48.636200,5.122700,462
02037,Aulnois-sous-Laon,02000,49.621300,3.611100,1348
57040,Aulnois-sur-Seille,57590,48.863600,6.336100,313
77013,Aulnoy,77120,48.848800,3.088700,362
59032,Aulnoy-lez-Valenciennes,59300,50.324600,3.536200,7080
52028,Aulnoy-sur-Aube,52160,47.831900,5.032100,51
59033,Aulnoye-Aymeries,59620,50.203600,3.831200,8612
23011,Aulon,23210,46.089400,1.696100,163
31023,Aulon,31420,43.188800,0.810800,313
65046,Aulon,65240,42.856800,0.261100,99
09296,Aulos-Sinsat,09310,42.798500,1.660800,160
80039,Ault,80460,50.094300,1.443700,1346
09029,Aulus-les-Bains,09140,42.762200,1.357400,132
70036,Aulx-lès-Cromary,70190,47.374700,6.099000,160
17025,Aumagne,17770,45.880700,-0.410500,694
76035,Aumale,76390,49.772500,1.755500,1996
34016,Aumelas,34230,43.576800,3.605600,624
62058,Aumerval,62550,50.506700,2.407300,189
34017,Aumes,34530,43.463200,3.469500,498
30025,Aumessas,30770,44.007400,3.512600,263
57041,Aumetz,57710,49.417900,5.948700,2418
50022,Aumeville-Lestre,50630,49.539200,-1.323400,132
39028,Aumont,39800,46.917900,5.636000,447
80041,Aumont,80640,49.878400,1.925700,119
60028,Aumont-en-Halatte,60300,49.231600,2.551500,567
39029,Aumur,39410,47.060900,5.333000,393
80040,Aumâtre,80140,49.922700,1.773800,170
51025,Auménancourt,51110,49.382300,4.060500,1130
16023,Aunac-sur-Charente,16460,45.925300,0.235200,647
11019,Aunat,11140,42.790000,2.101800,61
58017,Aunay-en-Bazois,58110,47.126800,3.724000,231
61013,Aunay-les-Bois,61500,48.544800,0.295700,138
28013,Aunay-sous-Auneau,28700,48.444200,1.818000,1484
28014,Aunay-sous-Crécy,28500,48.657600,1.305400,646
28015,Auneau-Bleury-Saint-Symphorien,28700,48.500000,1.764200,6419
60029,Auneuil,60390,49.370900,1.991000,2898
61014,Aunou-le-Faucon,61200,48.718900,0.053200,246
61015,Aunou-sur-Orne,61500,48.608000,0.238700,283
76036,Auppegard,76730,49.832300,1.027900,695
83007,Aups,83630,43.628300,6.213900,2192
47017,Auradou,47140,44.341700,0.817100,405
32016,Auradé,32600,43.562100,1.076800,679
31024,Auragne,31190,43.392200,1.510000,480
56007,Auray,56400,47.668400,-2.990100,14207
08031,Aure,08400,49.276100,4.622100,40
14591,Aure sur Mer,14520,49.335600,-0.811100,692
43012,Aurec-sur-Loire,43110,45.366800,4.203400,6164
87005,Aureil,87220,45.808800,1.403300,1045
40019,Aureilhan,40200,44.209400,-1.192000,1146
65047,Aureilhan,65800,43.248800,0.106500,8031
13006,Aureille,13930,43.698300,4.942000,1533
26019,Aurel,26340,44.693600,5.308100,271
84005,Aurel,84390,44.135700,5.390600,190
32017,Aurensan,32400,43.620000,-0.204000,131
65048,Aurensan,65390,43.304600,0.099500,764
31025,Aureville,31320,43.479400,1.457400,1048
11020,Auriac,11330,42.925900,2.491600,33
19014,Auriac,19220,45.198300,2.137600,216
64078,Auriac,64450,43.453100,-0.322400,247
12015,Auriac-Lagast,12120,44.142100,2.600200,228
24018,Auriac-du-Périgord,24290,45.111600,1.128600,397
15013,Auriac-l'Église,15500,45.266300,3.115600,141
47018,Auriac-sur-Dropt,47120,44.655100,0.241000,175
31026,Auriac-sur-Vendinelle,31460,43.517200,1.825800,1087
23012,Auriat,23400,45.872500,1.630900,122
31027,Auribail,31190,43.348500,1.372400,193
84006,Auribeau,84400,43.827500,5.444400,68
06007,Auribeau-sur-Siagne,06810,43.610500,6.911800,3401
40020,Aurice,40500,43.799300,-0.602200,633
31028,Aurignac,31420,43.213300,0.870100,1229
15014,Aurillac,15000,44.928100,2.441600,26214
32018,Aurimont,32450,43.566400,0.828900,211
31029,Aurin,31570,43.535500,1.680400,338
13007,Auriol,13390,43.359400,5.655900,13037
33020,Auriolles,33790,44.733300,0.044400,136
64079,Aurions-Idernes,64350,43.531600,-0.126300,112
38020,Auris,38142,45.049600,6.084300,189
63020,Aurières,63210,45.682900,2.917900,373
65049,Auriébat,65700,43.497100,0.085000,241
13008,Aurons,13121,43.672200,5.149000,555
33021,Auros,33124,44.511700,-0.159000,1072
48010,Auroux,48600,44.761000,3.720900,364
03011,Aurouër,03460,46.687300,3.312300,400
14581,Aurseulles,14240,49.133800,-0.699300,1896
81020,Aussac,81600,43.861700,2.037300,255
16024,Aussac-Vadalle,16560,45.825800,0.214700,564
31030,Ausseing,31260,43.156100,1.028400,91
64080,Aussevielle,64230,43.359800,-0.478900,864
81021,Aussillon,81200,43.492700,2.352900,5527
73023,Aussois,73500,45.248000,6.726600,676
31031,Ausson,31210,43.091600,0.589400,596
08032,Aussonce,08310,49.343200,4.325200,236
31032,Aussonne,31840,43.684100,1.327800,7997
32468,Aussos,32140,43.376800,0.643400,64
64081,Aussurucq,64130,43.132300,-0.981300,230
41006,Autainville,41240,47.884100,1.422100,421
25032,Autechaux,25110,47.381800,6.386800,449
25033,Autechaux-Roide,25150,47.390300,6.811000,487
31033,Auterive,31190,43.357900,1.482200,10456
32019,Auterive,32550,43.578000,0.632500,529
82006,Auterive,82500,43.855500,0.968000,65
64082,Auterrive,64270,43.466100,-1.008300,143
70037,Autet,70180,47.543800,5.695900,269
60030,Auteuil,60390,49.345800,2.091400,554
78034,Auteuil,78770,48.841500,1.817200,1020
64083,Autevielle-Saint-Martin-Bideren,64390,43.393200,-0.979000,219
08033,Authe,08240,49.461500,4.878900,94
27025,Autheuil-Authouillet,27490,49.102200,1.293800,941
60031,Autheuil-en-Valois,60890,49.178100,3.061500,265
80042,Autheux,80600,50.138400,2.235300,120
27026,Authevernes,27420,49.219200,1.629000,470
63021,Authezat,63114,45.637600,3.194200,661
14030,Authie,14280,49.207200,-0.430700,1707
80043,Authie,80560,50.119500,2.493500,246
80044,Authieule,80600,50.135500,2.379800,393
76038,Authieux-Ratiéville,76690,49.597200,1.147100,401
58018,Authiou,58700,47.267600,3.414500,41
70038,Authoison,70190,47.488600,6.149200,314
04016,Authon,04200,44.247500,6.144200,57
41007,Authon,41310,47.637800,0.890700,753
28018,Authon-du-Perche,28330,48.185000,0.891600,1480
91035,Authon-la-Plaine,91410,48.456000,1.954500,368
17026,Authon-Ébéon,17770,45.844700,-0.425900,410
27028,Authou,27290,49.227600,0.694500,331
80045,Authuille,80300,50.045900,2.680000,154
39030,Authume,39100,47.124200,5.507500,906
71013,Authumes,71270,46.884900,5.307000,285
26021,Autichamp,26400,44.678500,4.972200,151
34018,Autignac,34480,43.499100,3.163600,982
76040,Autigny,76740,49.796300,0.854000,321
88019,Autigny-la-Tour,88300,48.413700,5.786900,144
52029,Autigny-le-Grand,52300,48.472600,5.150400,130
52030,Autigny-le-Petit,52300,48.481100,5.151100,57
62059,Autingues,62610,50.843300,1.984800,293
46011,Autoire,46400,44.857700,1.826100,376
70039,Autoreille,70700,47.369900,5.829100,394
78036,Autouillet,78770,48.845100,1.795800,665
43014,Autrac,43450,45.335000,3.128200,50
38225,Autrans-Méaudre en Vercors,38112,45.171300,5.544400,2936
90082,Autrechêne,90140,47.591100,6.962600,281
08034,Autrecourt-et-Pourron,08210,49.604900,5.021900,342
02039,Autremencourt,02250,49.704200,3.793100,176
54030,Autrepierre,54450,48.608100,6.797400,74
02040,Autreppes,02580,49.896300,3.857100,175
02041,Autreville,02300,49.587800,3.237800,777
88020,Autreville,88300,48.486700,5.868700,194
54031,Autreville-sur-Moselle,54380,48.828400,6.110100,264
52031,Autreville-sur-la-Renne,52120,48.126900,4.976000,386
54032,Autrey,54160,48.532200,6.125700,192
88021,Autrey,88700,48.291800,6.725000,273
70042,Autrey-le-Vay,70110,47.536900,6.396800,93
70040,Autrey-lès-Cerre,70110,47.612100,6.346800,240
70041,Autrey-lès-Gray,70100,47.460900,5.480800,398
21034,Autricourt,21570,47.986300,4.625800,137
08035,Autruche,08240,49.452500,4.906700,49
45015,Autruy-sur-Juine,45480,48.278600,2.096100,745
08036,Autry,08250,49.264700,4.831100,93
03012,Autry-Issards,03210,46.544400,3.120200,313
45016,Autry-le-Châtel,45500,47.595100,2.604200,845
37009,Autrèche,37110,47.521600,1.002800,419
55017,Autrécourt-sur-Aire,55120,49.027200,5.143900,109
55018,Autréville-Saint-Lambert,55700,49.564500,5.135100,33
60032,Autrêches,60350,49.450100,3.129500,738
71014,Autun,71400,46.938600,4.303800,13172
82007,Auty,82220,44.189600,1.468200,142
06008,Auvare,06260,44.006200,6.913300,52
51027,Auve,51800,49.028000,4.685100,314
91037,Auvernaux,91830,48.527400,2.489800,332
43015,Auvers,43300,44.998400,3.395000,48
50023,Auvers,50500,49.300100,-1.321200,683
91038,Auvers-Saint-Georges,91580,48.474500,2.222900,1223
72016,Auvers-le-Hamon,72300,47.903400,-0.341800,1445
72017,Auvers-sous-Montfaucon,72540,47.998400,-0.078600,231
95039,Auvers-sur-Oise,95430,49.084700,2.156900,6863
70043,Auvet-et-la-Chapelotte,70100,47.507100,5.523500,237
82008,Auvillar,82340,44.066000,0.886400,895
14033,Auvillars,14340,49.201400,0.084400,238
21035,Auvillars-sur-Saône,21250,47.061000,5.112600,343
08037,Auvillers-les-Forges,08260,49.867100,4.360700,909
76042,Auvilliers,76270,49.757200,1.573900,101
45017,Auvilliers-en-Gâtinais,45270,47.968700,2.472600,342
60703,Aux Marais,60000,49.406500,2.041400,921
32020,Aux-Aussat,32170,43.441300,0.262500,269
50024,Auxais,50500,49.215200,-1.304600,176
39031,Auxange,39700,47.178200,5.653900,198
21036,Auxant,21360,47.129800,4.616800,80
90005,Auxelles-Bas,90200,47.727400,6.784600,417
90006,Auxelles-Haut,90200,47.752900,6.781300,287
89024,Auxerre,89000,47.793900,3.582100,35097
21037,Auxey-Duresses,21190,46.989000,4.729900,290
62060,Auxi-le-Château,62390,50.236600,2.117400,2547
10018,Auxon,10130,48.103100,3.926200,886
70044,Auxon,70000,47.696800,6.155800,398
21038,Auxonne,21130,47.188700,5.407000,7581
45018,Auxy,45340,48.106500,2.494300,948
71015,Auxy,71400,46.937800,4.419500,915
88022,Auzainvilliers,88140,48.237500,5.855900,191
23013,Auzances,23700,46.027400,2.501100,1129
31034,Auzas,31360,43.173700,0.894800,222
09030,Auzat,09220,42.697500,1.434700,561
63022,Auzat-la-Combelle,63570,45.449500,3.328900,1956
76043,Auzebosc,76190,49.601300,0.733100,1116
63023,Auzelles,63590,45.613600,3.528200,391
15015,Auzers,15240,45.273200,2.468100,159
04017,Auzet,04140,44.304100,6.316900,102
31035,Auzeville-Tolosane,31320,43.528500,1.489600,4665
31036,Auzielle,31650,43.541100,1.569100,1635
12016,Auzits,12390,44.495400,2.320000,824
43016,Auzon,43390,45.387600,3.379500,858
37010,Auzouer-en-Touraine,37110,47.556300,0.939600,2159
76045,Auzouville-l'Esneval,76760,49.631500,0.886200,361
76046,Auzouville-sur-Ry,76116,49.438700,1.307100,683
76047,Auzouville-sur-Saâne,76730,49.742200,0.931400,144
86015,Availles-Limouzine,86460,46.131300,0.651500,1312
79022,Availles-Thouarsais,79600,46.855900,-0.137800,180
86014,Availles-en-Châtellerault,86530,46.756900,0.571200,1730
35008,Availles-sur-Seiche,35130,47.958900,-1.186200,630
65050,Avajan,65240,42.847200,0.402000,82
89025,Avallon,89200,47.480800,3.919700,6305
25036,Avanne-Aveney,25720,47.200500,5.958100,2256
10020,Avant-lès-Marcilly,10400,48.430300,3.558000,509
10021,Avant-lès-Ramerupt,10240,48.450100,4.261200,160
86016,Avanton,86170,46.663500,0.307700,2226
05011,Avançon,05230,44.535900,6.191000,415
08038,Avançon,08300,49.478200,4.254100,341
2B025,Avapessa,20225,42.559200,8.896200,80
41008,Avaray,41500,47.722100,1.549100,672
08039,Avaux,08190,49.465400,4.068500,520
69014,Aveize,69610,45.679900,4.474400,1110
42010,Aveizieux,42330,45.570800,4.376200,1701
21039,Avelanges,21120,47.586400,5.027800,33
80046,Avelesges,80270,49.903400,1.932300,48
59034,Avelin,59710,50.539700,3.085000,2561
80047,Aveluy,80300,50.033400,2.664700,540
14034,Avenay,14210,49.095900,-0.462000,555
51028,Avenay-Val-d'Or,51160,49.074300,4.045300,956
32021,Avensac,32120,43.830000,0.900700,73
33022,Avensan,33480,45.003300,-0.757400,3140
65051,Aventignan,65660,43.060700,0.521900,204
65052,Averan,65380,43.135500,-0.000100,86
62061,Averdoingt,62127,50.347400,2.440400,295
41009,Averdon,41330,47.687500,1.303800,677
03013,Avermes,03000,46.596100,3.316400,4074
95040,Avernes,95450,49.093300,1.863200,871
61018,Avernes-Saint-Gourgon,61470,48.935900,0.317800,71
53013,Averton,53700,48.357500,-0.203500,552
59035,Avesnelles,59440,50.106500,3.953100,2232
62062,Avesnes,62650,50.551300,1.963100,46
80048,Avesnes-Chaussoy,80140,49.892800,1.865500,63
76048,Avesnes-en-Bray,76220,49.473700,1.674900,280
72018,Avesnes-en-Saosnois,72260,48.268100,0.359700,93
76049,Avesnes-en-Val,76630,49.915700,1.405200,261
62063,Avesnes-le-Comte,62810,50.268800,2.533000,1840
59038,Avesnes-le-Sec,59296,50.246000,3.372500,1458
59037,Avesnes-les-Aubert,59129,50.193100,3.372600,3562
62064,Avesnes-lès-Bapaume,62450,50.104200,2.832700,174
59036,Avesnes-sur-Helpe,59440,50.122400,3.926900,4012
44007,Avessac,44460,47.645000,-1.972400,2452
72019,Avessé,72350,47.964600,-0.273700,332
65053,Aveux,65370,43.008400,0.562300,41
65054,Avezac-Prat-Lahitte,65130,43.067300,0.332400,581
32023,Avezan,32380,43.882400,0.802000,86
72020,Avezé,72400,48.233000,0.676600,690
84007,Avignon,84000,43.941600,4.833300,92188
39032,Avignon-lès-Saint-Claude,39200,46.403200,5.837600,348
38023,Avignonet,38650,44.956200,5.667100,203
31037,Avignonet-Lauragais,31290,43.377300,1.777700,1573
54033,Avillers,54490,49.324000,5.738700,141
88023,Avillers,88500,48.312500,6.205000,88
55021,Avillers-Sainte-Croix,55210,49.033700,5.702000,80
25038,Avilley,25680,47.429700,6.267400,150
60033,Avilly-Saint-Léonard,60300,49.182600,2.527900,852
62065,Avion,62210,50.404000,2.824300,17435
55022,Avioth,55600,49.567300,5.389700,119
10022,Avirey-Lingey,10340,48.034100,4.291200,196
27031,Aviron,27930,49.056000,1.119500,1096
51029,Avize,51190,48.972400,4.005600,1742
55023,Avocourt,55270,49.204600,5.140700,120
37011,Avoine,37420,47.220000,0.189000,2067
61020,Avoine,61150,48.673400,-0.101200,219
72021,Avoise,72430,47.857500,-0.197000,594
67016,Avolsheim,67120,48.561000,7.492100,745
77014,Avon,77210,48.412400,2.733700,13651
79023,Avon,79800,46.372100,0.001700,63
10023,Avon-la-Pèze,10290,48.384600,3.655200,211
37012,Avon-les-Roches,37220,47.182300,0.462600,534
62066,Avondance,62310,50.478700,2.100200,33
18018,Avord,18520,47.031300,2.663500,2909
21040,Avosnes,21350,47.369600,4.632600,83
21041,Avot,21580,47.616300,5.005300,186
25039,Avoudrey,25690,47.138100,6.433400,982
54034,Avrainville,54385,48.771600,5.943900,215
88024,Avrainville,88130,48.378900,6.219400,111
91041,Avrainville,91630,48.554300,2.243700,1052
50025,Avranches,50300,48.675900,-1.345200,10143
88025,Avranville,88630,48.416500,5.538800,66
60034,Avrechy,60130,49.444600,2.419000,1147
52033,Avrecourt,52140,47.965500,5.533800,117
76050,Avremesnil,76730,49.850300,0.933600,994
73025,Avressieux,73240,45.573900,5.696800,544
10024,Avreuil,10130,48.054000,3.998600,167
54035,Avricourt,54450,48.642300,6.811000,377
57042,Avricourt,57810,48.657300,6.802800,574
60035,Avricourt,60310,49.649700,2.865400,232
73026,Avrieux,73500,45.186000,6.752600,386
70045,Avrigney-Virey,70150,47.338500,5.773800,428
60036,Avrigny,60190,49.387300,2.576400,404
54036,Avril,54150,49.292400,5.966600,1225
58020,Avril-sur-Loire,58300,46.804100,3.365400,245
03014,Avrilly,03130,46.328400,3.971000,144
61021,Avrilly,61700,48.536700,-0.617700,92
49015,Avrillé,49240,47.502700,-0.601100,15251
85010,Avrillé,85440,46.474400,-1.498300,1403
37013,Avrillé-les-Ponceaux,37340,47.384300,0.302700,479
62067,Avroult,62560,50.630900,2.146700,536
58019,Avrée,58170,46.825100,3.880100,83
17027,Avy,17800,45.551400,-0.509600,510
34019,Avène,34260,43.751300,3.110700,294
30026,Avèze,30120,43.974800,3.599200,1053
63024,Avèze,63690,45.596600,2.602300,158
32022,Avéron-Bergelle,32290,43.758100,0.064700,186
59039,Awoingt,59400,50.153700,3.286700,757
09032,Ax-les-Thermes,09110,42.684100,1.819200,1285
11021,Axat,11140,42.795800,2.241200,479
09031,Axiat,09250,42.799600,1.762600,33
57043,Ay-sur-Moselle,57300,49.247100,6.193500,1601
63025,Ayat-sur-Sioule,63390,46.060900,2.887800,138
63026,Aydat,63970,45.666300,2.989900,2574
64084,Aydie,64330,43.571200,-0.117000,130
64085,Aydius,64490,43.001200,-0.520200,102
88026,Aydoilles,88600,48.212100,6.573800,1018
19015,Ayen,19310,45.254100,1.325000,717
80049,Ayencourt,80500,49.625800,2.549900,152
62068,Ayette,62116,50.170500,2.726300,330
66010,Ayguatébia-Talau,66360,42.556100,2.196200,49
33023,Ayguemorte-les-Graves,33640,44.702700,-0.485700,1425
31004,Ayguesvives,31450,43.423600,1.596500,2812
32024,Ayguetinte,32410,43.830800,0.415900,156
64086,Ayherre,64240,43.371600,-1.236900,1128
73027,Ayn,73470,45.572400,5.751700,392
46012,Aynac,46120,44.789100,1.852400,561
15016,Ayrens,15250,44.990700,2.326600,614
86017,Ayron,86190,46.645800,0.046300,1085
65055,Ayros-Arbouix,65400,43.000400,-0.065800,349
74024,Ayse,74130,46.089500,6.440900,2376
12017,Ayssènes,12430,44.091600,2.761900,225
17028,Aytré,17440,46.131200,-1.114600,9746
65056,Ayzac-Ost,65400,43.024200,-0.092300,473
32025,Ayzieu,32800,43.858600,-0.025700,158
55024,Azannes-et-Soumazannes,55150,49.288000,5.468400,168
31038,Azas,31380,43.721600,1.676300,675
23014,Azat-Châtenet,23210,46.088700,1.771200,108
87006,Azat-le-Ris,87360,46.305600,1.054700,241
79024,Azay-le-Brûlé,79400,46.405800,-0.265800,1927
36010,Azay-le-Ferron,36290,46.848500,1.082900,817
37014,Azay-le-Rideau,37190,47.273700,0.461600,3438
37015,Azay-sur-Cher,37270,47.336500,0.842700,3243
37016,Azay-sur-Indre,37310,47.204300,0.941300,363
79025,Azay-sur-Thouet,79130,46.616800,-0.359800,1114
54037,Azelot,54210,48.580700,6.228100,411
23015,Azerables,23160,46.358400,1.467700,804
54038,Azerailles,54122,48.494200,6.692200,786
24019,Azerat,24210,45.158500,1.100800,463
65057,Azereix,65380,43.202700,-0.023300,992
65058,Azet,65170,42.782300,0.356600,148
50026,Azeville,50310,49.456300,-1.312300,79
34020,Azillanet,34210,43.326300,2.747500,357
11022,Azille,11700,43.276300,2.658100,1115
2A026,Azilone-Ampaza,20190,41.871800,9.014400,208
62069,Azincourt,62310,50.457400,2.115400,302
69016,Azolette,69790,46.191700,4.414600,120
57044,Azoudange,57810,48.729700,6.817600,89
40021,Azur,40140,43.799600,-1.291900,988
18019,Azy,18220,47.193700,2.709900,450
58021,Azy-le-Vif,58240,46.787300,3.226800,188
02042,Azy-sur-Marne,02400,49.006100,3.357500,369
2A027,Azzana,20121,42.117200,8.933100,49
41010,Azé,41100,47.858700,0.998600,971
71016,Azé,71260,46.432700,4.746800,1103
43017,Azérat,43390,45.353200,3.395700,294
64010,Aïcirits-Camou-Suhast,64120,43.354500,-1.014100,699
25009,Aïssey,25360,47.273300,6.327700,168
51030,Aÿ-Champagne,51150,49.056100,4.041400,5103
34021,Babeau-Bouldoux,34360,43.439500,2.891800,309
77015,Baby,77480,48.392500,3.346200,113
60037,Babœuf,60400,49.585300,3.091500,508
54039,Baccarat,54120,48.447500,6.743600,4089
45019,Baccon,45130,47.882200,1.624000,654
46013,Bach,46230,44.343000,1.679800,211
59041,Bachant,59138,50.207800,3.875400,2230
31039,Bachas,31420,43.249500,0.940800,90
31040,Bachos,31440,42.900800,0.607000,31
59042,Bachy,59830,50.544500,3.269900,1898
50027,Bacilly,50530,48.705200,-1.431300,921
51031,Baconnes,51400,49.166300,4.334400,289
80050,Bacouel-sur-Selle,80480,49.828900,2.195800,461
57045,Bacourt,57590,48.929200,6.404400,114
60039,Bacouël,60120,49.623100,2.380500,477
27033,Bacquepuis,27930,49.090600,1.045700,307
27034,Bacqueville,27440,49.323800,1.365700,614
76051,Bacqueville-en-Caux,76730,49.793200,1.005500,1914
15017,Badailhac,15800,44.914400,2.626000,129
48013,Badaroux,48000,44.547600,3.561100,930
36158,Badecon-le-Pin,36200,46.530200,1.602300,748
24021,Badefols-d'Ans,24390,45.230600,1.204700,421
24022,Badefols-sur-Dordogne,24150,44.839300,0.799100,202
56008,Baden,56870,47.606100,-2.903600,5086
11023,Badens,11800,43.222900,2.507300,749
25040,Badevel,25490,47.501500,6.936200,808
88027,Badménil-aux-Bois,88330,48.311500,6.528500,135
54040,Badonviller,54540,48.491600,6.907300,1497
55026,Badonvilliers-Gérauvilliers,55130,48.543400,5.578100,126
67017,Baerendorf,67320,48.830900,7.088900,304
57046,Baerenthal,57230,48.966500,7.516400,734
63027,Baffie,63600,45.476400,3.824200,111
30027,Bagard,30140,44.068400,4.042200,2605
33024,Bagas,33190,44.618600,-0.050100,283
09033,Bagert,09230,43.080600,1.070300,46
11024,Bages,11100,43.116300,2.970200,720
66011,Bages,66670,42.607500,2.889300,4560
31041,Bagiry,31510,42.980300,0.623500,105
46015,Bagnac-sur-Célé,46270,44.665200,2.145800,1467
89027,Bagneaux,89190,48.251300,3.593000,196
77016,Bagneaux-sur-Loing,77167,48.220600,2.708000,1570
02043,Bagneux,02290,49.459500,3.277600,62
03015,Bagneux,03460,46.647700,3.207100,329
36011,Bagneux,36210,47.170400,1.758800,172
51032,Bagneux,51260,48.560500,3.830400,405
54041,Bagneux,54170,48.556900,5.875100,127
92007,Bagneux,92220,48.798000,2.309300,44572
10025,Bagneux-la-Fosse,10340,47.998400,4.295400,178
17029,Bagnizeau,17160,45.900800,-0.316200,177
11025,Bagnoles,11600,43.266800,2.446600,300
61483,Bagnoles de l'Orne Normandie,61140,48.569600,-0.417400,2699
93006,Bagnolet,93170,48.867100,2.425200,43086
63028,Bagnols,63810,45.491800,2.637600,400
69017,Bagnols,69620,45.910400,4.620500,765
83008,Bagnols-en-Forêt,83600,43.532800,6.708900,3194
30028,Bagnols-sur-Cèze,30200,44.162200,4.624400,18112
21042,Bagnot,21700,47.049100,5.069900,154
65059,Bagnères-de-Bigorre,65200,42.968600,0.129800,7114
31042,Bagnères-de-Luchon,31110,42.749200,0.626400,2076
35009,Baguer-Morvan,35120,48.503700,-1.771200,1702
35010,Baguer-Pican,35120,48.551000,-1.691000,1756
66012,Baho,66540,42.706600,2.822900,3231
40022,Bahus-Soubiran,40320,43.674400,-0.345600,394
28019,Baigneaux,28140,48.126600,1.820100,232
33025,Baigneaux,33760,44.724600,-0.195700,451
70047,Baignes,70000,47.578600,6.049100,99
16025,Baignes-Sainte-Radegonde,16360,45.375700,-0.258300,1254
21043,Baigneux-les-Juifs,21450,47.601000,4.650600,198
40023,Baigts,40380,43.689700,-0.792200,331
64087,Baigts-de-Béarn,64300,43.523500,-0.846500,855
34022,Baillargues,34670,43.656500,4.010200,7829
28023,Bailleau-Armenonville,28320,48.530800,1.640400,1299
28022,Bailleau-l'Évêque,28300,48.488000,1.398800,1175
28021,Bailleau-le-Pin,28120,48.356700,1.326500,1684
66013,Baillestavy,66320,42.568200,2.526600,112
95042,Baillet-en-France,95560,49.059400,2.303400,2021
59043,Bailleul,59270,50.732500,2.742300,14732
61023,Bailleul,61160,48.812900,-0.022300,609
80051,Bailleul,80490,50.024800,1.854700,253
76052,Bailleul-Neuville,76660,49.808200,1.428200,220
62073,Bailleul-Sir-Berthoult,62580,50.335700,2.843600,1429
62070,Bailleul-aux-Cornailles,62127,50.372300,2.448400,264
27035,Bailleul-la-Vallée,27260,49.196500,0.437800,96
60040,Bailleul-le-Soc,60190,49.421900,2.582800,645
62071,Bailleul-lès-Pernes,62550,50.509400,2.380100,408
60041,Bailleul-sur-Thérain,60930,49.384600,2.229000,2330
62072,Bailleulmont,62123,50.208300,2.604600,213
62074,Bailleulval,62123,50.222600,2.623600,237
60042,Bailleval,60140,49.348500,2.469200,1483
76053,Baillolet,76660,49.790300,1.432200,116
41012,Baillou,41170,47.981900,0.853400,210
60043,Bailly,60170,49.498700,2.983600,599
78043,Bailly,78870,48.836600,2.080900,3731
77018,Bailly-Romainvilliers,77700,48.845000,2.819100,6980
52034,Bailly-aux-Forges,52130,48.455300,4.906500,127
76054,Bailly-en-Rivière,76630,49.906100,1.353400,510
10026,Bailly-le-Franc,10330,48.522000,4.660100,34
35012,Bain-de-Bretagne,35470,47.832400,-1.680600,7674
62075,Baincthun,62360,50.697800,1.708200,1324
62076,Bainghen,62850,50.751800,1.902100,208
43018,Bains,43370,44.991400,3.764300,1378
35013,Bains-sur-Oust,35600,47.716000,-2.074000,3535
54042,Bainville-aux-Miroirs,54290,48.436200,6.286700,304
88030,Bainville-aux-Saules,88270,48.208200,6.132900,148
54043,Bainville-sur-Madon,54550,48.590300,6.081400,1441
06009,Bairols,06420,43.985600,7.117400,105
08116,Bairon et ses environs,08390,49.514600,4.759400,1037
35014,Bais,35680,48.008900,-1.298900,2539
53016,Bais,53160,48.248500,-0.357300,1222
59044,Baisieux,59780,50.610100,3.237900,5545
52035,Baissey,52250,47.749300,5.252300,167
59045,Baives,59132,50.064700,4.201500,158
07022,Baix,07210,44.704600,4.747400,1296
66014,Baixas,66390,42.744000,2.807900,2777
80052,Baizieux,80300,49.989500,2.514000,243
47019,Bajamont,47480,44.256000,0.703100,1034
32026,Bajonnette,32120,43.812700,0.766300,104
62077,Bajus,62150,50.421800,2.471400,355
09034,Balacet,09800,42.889000,0.984400,51
46016,Baladou,46600,44.925000,1.557300,396
60044,Balagny-sur-Thérain,60250,49.295400,2.317300,1628
12018,Balaguier-d'Olt,12260,44.518800,1.977800,179
12019,Balaguier-sur-Rance,12380,43.894500,2.576100,90
09035,Balaguères,09800,42.966500,1.016200,196
39034,Balaiseaux,39120,46.967100,5.459500,291
01027,Balan,01360,45.826800,5.107600,3077
08043,Balan,08200,49.688700,4.964400,1579
39035,Balanod,39160,46.455800,5.349000,323
64088,Balansun,64300,43.489600,-0.693400,316
17030,Balanzac,17600,45.752800,-0.843800,642
34024,Balaruc-le-Vieux,34540,43.465000,3.697100,2737
34023,Balaruc-les-Bains,34540,43.447600,3.692200,7139
07023,Balazuc,07120,44.512300,4.373700,389
35015,Balazé,35500,48.175900,-1.183400,2162
42011,Balbigny,42510,45.829900,4.181300,2911
67018,Balbronn,67310,48.582300,7.408900,681
67019,Baldenheim,67600,48.243400,7.527300,1254
68015,Baldersheim,68390,47.796800,7.406300,2596
64089,Baleix,64460,43.378400,-0.138800,126
31043,Balesta,31580,43.202800,0.564400,169
47020,Baleyssagues,47120,44.683400,0.150300,188
68016,Balgau,68740,47.929800,7.533100,947
08044,Balham,08190,49.491500,4.152300,140
82009,Balignac,82120,43.956000,0.878100,41
10027,Balignicourt,10330,48.529000,4.456000,56
62078,Balinghem,62610,50.862700,1.937500,1220
64090,Baliracq-Maumusson,64330,43.542200,-0.249900,120
64091,Baliros,64510,43.230300,-0.308800,515
33026,Balizac,33730,44.487800,-0.450000,520
91044,Ballainvilliers,91160,48.671800,2.291000,4904
74025,Ballaison,74140,46.290600,6.351000,1472
37018,Ballan-Miré,37510,47.339300,0.599700,8477
91045,Ballancourt-sur-Essonne,91610,48.524600,2.388200,8191
17031,Ballans,17160,45.805300,-0.223500,201
08045,Ballay,08400,49.423200,4.756000,242
87007,Balledent,87290,46.107700,1.220800,202
14035,Balleroy-sur-Drôme,14490,49.193100,-0.832500,1303
68017,Ballersdorf,68210,47.619500,7.157600,818
17032,Ballon,17290,46.054100,-0.970500,828
72023,Ballon-Saint Mars,72290,48.174000,0.256300,2273
26022,Ballons,26560,44.247600,5.647800,88
71017,Ballore,71220,46.536900,4.379000,87
53018,Ballots,53350,47.902600,-1.056100,1278
77019,Balloy,77118,48.395100,3.149300,359
88031,Balléville,88170,48.336300,5.846700,97
31044,Balma,31130,43.610800,1.503700,17772
10028,Balnot-la-Grange,10210,47.987900,4.199400,111
10029,Balnot-sur-Laignes,10110,48.036700,4.348700,150
2A028,Balogna,20160,42.185400,8.750500,135
21044,Balot,21330,47.820300,4.442200,86
68018,Balschwiller,68210,47.674000,7.162100,729
48016,Balsièges,48000,44.477000,3.443600,608
68019,Baltzenheim,68320,48.097300,7.548700,581
16026,Balzac,16430,45.716700,0.132100,1410
80053,Balâtre,80700,49.711000,2.866500,78
59046,Bambecque,59470,50.908900,2.561200,845
57047,Bambiderstroff,57690,49.101700,6.600300,1016
88032,Ban-de-Laveline,88520,48.225400,7.080100,1148
88033,Ban-de-Sapt,88210,48.340000,7.016100,360
88106,Ban-sur-Meurthe-Clefcy,88230,48.128500,6.970200,957
48017,Banassac-Canilhac,48500,44.429600,3.169300,1064
64092,Banca,64430,43.091900,-1.379400,358
02044,Bancigny,02140,49.799700,4.038300,26
62079,Bancourt,62450,50.103300,2.893500,83
83009,Bandol,83150,43.147000,5.748800,8267
01028,Baneins,01990,46.111700,4.904500,621
24023,Baneuil,24150,44.854000,0.692400,321
56009,Bangor,56360,47.314900,-3.193800,994
65060,Banios,65200,43.039500,0.226000,66
23016,Banize,23120,45.937600,1.993200,183
29004,Bannalec,29380,47.936200,-3.688300,5725
25041,Bannans,25560,46.902700,6.233500,370
18020,Bannay,18300,47.381600,2.876900,845
51034,Bannay,51270,48.856500,3.721800,23
57048,Bannay,57220,49.119500,6.465900,78
07024,Banne,07460,44.359800,4.146300,648
18021,Bannegon,18210,46.806000,2.722900,233
46017,Bannes,46400,44.813800,1.917100,143
51035,Bannes,51230,48.790800,3.930800,252
52037,Bannes,52360,47.903000,5.390600,360
53019,Bannes,53340,47.985900,-0.349100,119
14036,Banneville-la-Campagne,14940,49.166900,-0.227600,187
81022,Bannières,81500,43.619500,1.759400,210
55027,Bannoncourt,55300,48.955100,5.480500,159
77020,Bannost-Villegagnon,77970,48.676200,3.195200,667
08046,Banogne-Recouvrance,08220,49.571100,4.132900,162
04018,Banon,04150,44.024400,5.649600,1072
40024,Banos,40500,43.731800,-0.618400,271
39037,Bans,39380,46.980100,5.579800,174
63029,Bansat,63570,45.484800,3.363800,264
71018,Bantanges,71500,46.604300,5.125900,577
59047,Banteux,59266,50.064200,3.187200,339
95046,Banthelu,95420,49.125800,1.815100,146
55028,Bantheville,55110,49.352200,5.071800,102
59048,Bantigny,59554,50.233700,3.235900,494
59049,Bantouzelle,59266,50.058900,3.225000,441
68020,Bantzenheim,68490,47.822600,7.503200,1630
90007,Banvillars,90800,47.588100,6.812700,289
14038,Banville,14480,49.308700,-0.489000,797
61024,Banvou,61450,48.665700,-0.553700,630
66015,Banyuls-dels-Aspres,66300,42.565300,2.864900,1483
66016,Banyuls-sur-Mer,66650,42.460200,3.101400,4496
89028,Baon,89430,47.861100,4.137700,58
76055,Baons-le-Comte,76190,49.640300,0.759400,337
62080,Bapaume,62450,50.101800,2.855900,3779
19016,Bar,19800,45.340700,1.814300,311
55029,Bar-le-Duc,55000,48.762800,5.173200,14607
08049,Bar-lès-Buzancy,08240,49.443300,4.956200,115
10033,Bar-sur-Aube,10200,48.233000,4.716600,4665
10034,Bar-sur-Seine,10110,48.114400,4.378700,2858
49017,Baracé,49430,47.641600,-0.356300,636
11026,Baraigne,11410,43.329300,1.819100,163
36012,Baraize,36270,46.485700,1.571900,352
62081,Baralle,62860,50.210700,3.057400,434
12056,Baraqueville,12160,44.282400,2.452700,3173
62082,Barastre,62124,50.068500,2.938600,308
05012,Baratier,05200,44.505100,6.504000,648
65061,Barbachen,65140,43.428600,0.126700,41
2B029,Barbaggio,20253,42.682600,9.363600,362
11027,Barbaira,11800,43.177400,2.516200,805
08047,Barbaise,08430,49.677500,4.579200,102
54044,Barbas,54450,48.571400,6.846900,204
47021,Barbaste,47230,44.162200,0.238200,1488
31045,Barbazan,31510,43.034400,0.622300,512
65062,Barbazan-Debat,65690,43.201900,0.129500,3478
65063,Barbazan-Dessus,65360,43.164200,0.143700,155
13010,Barbentane,13570,43.891000,4.745400,4266
73029,Barberaz,73000,45.552800,5.938800,5306
10030,Barberey-Saint-Sulpice,10600,48.327300,4.013500,1542
03016,Barberier,03140,46.222400,3.247500,150
14039,Barbery,14220,49.015100,-0.345000,760
60045,Barbery,60810,49.220800,2.674900,528
14040,Barbeville,14400,49.275000,-0.752700,240
77021,Barbey,77130,48.365500,3.048100,153
88035,Barbey-Seroux,88640,48.129100,6.846600,143
16028,Barbezieux-Saint-Hilaire,16300,45.481100,-0.155400,4726
16027,Barbezières,16140,45.912100,-0.089300,134
21045,Barbirey-sur-Ouche,21410,47.254300,4.739400,259
77022,Barbizon,77630,48.447200,2.603400,1261
26023,Barbières,26300,44.940800,5.159700,1143
51036,Barbonne-Fayel,51120,48.654100,3.688500,482
54045,Barbonville,54360,48.548600,6.351900,434
10031,Barbuise,10400,48.550700,3.560900,433
08048,Barby,08300,49.525200,4.314400,389
73030,Barby,73230,45.570500,5.981500,3772
